,Unnamed: 0,name,categories,address,cc,city,country,crossStreet,distance,formattedAddress,labeledLatLngs,lat,lng,neighborhood,postalCode,state,id,Checkin TipCount,venue price,venue price index,venue rating
2,2,Cinnamon Culture,Indian Restaurant,46 Plaistow Lane,GB,Bromley,United Kingdom,,355,"['46 Plaistow Lane', 'Bromley', 'Greater London', 'BR1 3PA', 'United Kingdom']","[{'label': 'display', 'lat': 51.414196, 'lng': 0.020883}]",51.414196000000004,0.020883000000000002,,BR1 3PA,Greater London,4d6ffb26b73bb1f79bacb272,7.0,Moderate,2.0,7.9
4,4,Havet,Turkish Restaurant,195-199 High St,GB,Bromley,United Kingdom,,797,"['195-199 High St', 'Bromley', 'Greater London', 'BR1 1NN', 'United Kingdom']","[{'label': 'display', 'lat': 51.40618386892237, 'lng': 0.01352165486780187}]",51.40618386892237,0.01352165486780187,,BR1 1NN,Greater London,50cf7f97e4b044ef7b70cefb,20.0,Moderate,2.0,8.0
6,6,wagamama,Asian Restaurant,,GB,Bromley,United Kingdom,,831,"['Bromley', 'Greater London', 'BR1 1DN', 'United Kingdom']","[{'label': 'display', 'lat': 51.40402480473292, 'lng': 0.017960071563720703}]",51.40402480473292,0.017960071563720703,,BR1 1DN,Greater London,5780ed59498e131cf59f8599,2.0,Moderate,2.0,7.8
12,12,Nando's,Portuguese Restaurant,9 Widmore Rd,GB,Bromley,United Kingdom,,696,"['9 Widmore Rd', 'Bromley', 'Greater London', 'BR1 1RL', 'United Kingdom']","[{'label': 'display', 'lat': 51.4059810423179, 'lng': 0.01608245968574302}]",51.4059810423179,0.016082459685743018,,BR1 1RL,Greater London,4b02eb36f964a520014b22e3,15.0,Moderate,2.0,7.4
29,29,Tamasha,Indian Restaurant,131 Widmore Rd.,GB,Bromley,United Kingdom,at Homefield Rd.,580,"['131 Widmore Rd. (at Homefield Rd.)', 'Bromley', 'Greater London', 'BR1 3AX', 'United Kingdom']","[{'label': 'display', 'lat': 51.40694908851223, 'lng': 0.027044476224484457}]",51.40694908851223,0.027044476224484457,,BR1 3AX,Greater London,4b81547bf964a520c19f30e3,5.0,Moderate,2.0,6.9
38,38,Madisons,American Restaurant,32 Homesdale Rd,GB,Bromley Town,United Kingdom,,1655,"['32 Homesdale Rd', 'Bromley Town', 'Greater London', 'BR2 9LD', 'United Kingdom']","[{'label': 'display', 'lat': 51.39683, 'lng': 0.028778}]",51.39683,0.028777999999999998,,BR2 9LD,Greater London,50536ce4e4b0e932c8071e55,3.0,Moderate,2.0,7.2
51,51,KFC,Fast Food Restaurant,496 Bromley Rd,GB,Kent,United Kingdom,,2276,"['496 Bromley Rd', 'Kent', 'BR1 4PB', 'United Kingdom']","[{'label': 'display', 'lat': 51.423778015946446, 'lng': -0.00377655029296875}]",51.42377801594645,-0.00377655029296875,,BR1 4PB,Kent,4c54daacb426ef3b8b53948a,1.0,Cheap,1.0,5.9
55,55,The Best Kebab Kingdom,Fast Food Restaurant,293 Baring Rd,GB,Grove Park,United Kingdom,,2223,"['293 Baring Rd', 'Grove Park', 'Greater London', 'SE1 2 9', 'United Kingdom']","[{'label': 'display', 'lat': 51.431029423976234, 'lng': 0.020856857299804688}]",51.43102942397624,0.020856857299804688,,SE1 2 9,Greater London,4bfc12f71be376b0bc1ff8b4,2.0,Cheap,1.0,
56,56,Rising Sun,Chinese Restaurant,356 Baring Rd.,GB,Grove Park,United Kingdom,,2251,"['356 Baring Rd.', 'Grove Park', 'Greater London', 'SE12 0DU', 'United Kingdom']","[{'label': 'display', 'lat': 51.431296981593235, 'lng': 0.021822452545166016}]",51.43129698159325,0.021822452545166016,,SE12 0DU,Greater London,4b37979ff964a520b04225e3,1.0,Cheap,1.0,
57,57,The Grove Indian,Indian Restaurant,350 Baring Rd.,GB,London,United Kingdom,,2266,"['350 Baring Rd.', 'London', 'Greater London', 'SE12 0DU', 'United Kingdom']","[{'label': 'display', 'lat': 51.431424, 'lng': 0.021171}]",51.431424,0.021171000000000002,,SE12 0DU,Greater London,51f32afd5a23d5667130d85d,0.0,Cheap,1.0,
70,70,wagamama,Asian Restaurant,,GB,Bromley,United Kingdom,,1746,"['Bromley', 'Greater London', 'BR1 1DN', 'United Kingdom']","[{'label': 'display', 'lat': 51.40402480473292, 'lng': 0.017960071563720703}]",51.40402480473292,0.017960071563720703,,BR1 1DN,Greater London,5780ed59498e131cf59f8599,2.0,Moderate,2.0,7.8
71,71,Havet,Turkish Restaurant,195-199 High St,GB,Bromley,United Kingdom,,2053,"['195-199 High St', 'Bromley', 'Greater London', 'BR1 1NN', 'United Kingdom']","[{'label': 'display', 'lat': 51.40618386892237, 'lng': 0.01352165486780187}]",51.40618386892237,0.01352165486780187,,BR1 1NN,Greater London,50cf7f97e4b044ef7b70cefb,20.0,Moderate,2.0,8.0
72,72,Madisons,American Restaurant,32 Homesdale Rd,GB,Bromley Town,United Kingdom,,1020,"['32 Homesdale Rd', 'Bromley Town', 'Greater London', 'BR2 9LD', 'United Kingdom']","[{'label': 'display', 'lat': 51.39683, 'lng': 0.028778}]",51.39683,0.028777999999999998,,BR2 9LD,Greater London,50536ce4e4b0e932c8071e55,3.0,Moderate,2.0,7.2
81,81,Nando's,Portuguese Restaurant,9 Widmore Rd,GB,Bromley,United Kingdom,,1985,"['9 Widmore Rd', 'Bromley', 'Greater London', 'BR1 1RL', 'United Kingdom']","[{'label': 'display', 'lat': 51.4059810423179, 'lng': 0.01608245968574302}]",51.4059810423179,0.016082459685743018,,BR1 1RL,Greater London,4b02eb36f964a520014b22e3,15.0,Moderate,2.0,7.4
103,103,Tamasha,Indian Restaurant,131 Widmore Rd.,GB,Bromley,United Kingdom,at Homefield Rd.,2070,"['131 Widmore Rd. (at Homefield Rd.)', 'Bromley', 'Greater London', 'BR1 3AX', 'United Kingdom']","[{'label': 'display', 'lat': 51.40694908851223, 'lng': 0.027044476224484457}]",51.40694908851223,0.027044476224484457,,BR1 3AX,Greater London,4b81547bf964a520c19f30e3,5.0,Moderate,2.0,6.9
112,112,Yo! Sushi,Sushi Restaurant,The Glades,GB,,United Kingdom,,1725,"['The Glades', 'United Kingdom']","[{'label': 'display', 'lat': 51.403716698450545, 'lng': 0.01701185604152809}]",51.403716698450545,0.017011856041528092,,,,55a10a9f498e042dffa70f91,2.0,Moderate,2.0,6.6
117,117,Cow and Pig,English Restaurant,39 East St,GB,Bromley,United Kingdom,,2135,"['39 East St', 'Bromley', 'Greater London', 'BR1 1QQ', 'United Kingdom']","[{'label': 'display', 'lat': 51.40740142611505, 'lng': 0.01643757560106593}]",51.407401426115044,0.016437575601065933,,BR1 1QQ,Greater London,56326dc1498e1b96f1ffceab,2.0,,,6.7
119,119,The Crooked Billet (Harvester),English Restaurant,286 Southborough Ln,GB,Bromley,United Kingdom,,2203,"['286 Southborough Ln', 'Bromley', 'Greater London', 'BR2 8AA', 'United Kingdom']","[{'label': 'display', 'lat': 51.39040843017192, 'lng': 0.053958433855087404}]",51.39040843017192,0.053958433855087404,,BR2 8AA,Greater London,4be5a76a2468c92874510043,8.0,,,6.7
120,120,Shampan Bromley,Indian Restaurant,38 Chatterton Rd,GB,Bromley,United Kingdom,at Walpole Rd,1001,"['38 Chatterton Rd (at Walpole Rd)', 'Bromley', 'Greater London', 'BR2 9QN', 'United Kingdom']","[{'label': 'display', 'lat': 51.392337556057505, 'lng': 0.03546819272318197}]",51.39233755605751,0.03546819272318197,,BR2 9QN,Greater London,4bdb42a4c79cc92828e181e9,1.0,Moderate,2.0,6.2
126,126,Texas Jacks,Mexican Restaurant,238 High St,GB,Bromley,United Kingdom,,2117,"['238 High St', 'Bromley', 'Greater London', 'BR1 1PQ', 'United Kingdom']","[{'label': 'display', 'lat': 51.40660246602366, 'lng': 0.012613353223573915}]",51.40660246602366,0.012613353223573915,,BR1 1PQ,Greater London,515c7ea7e4b0129954a7f0c3,4.0,Cheap,1.0,6.4
128,128,McDonald's,Fast Food Restaurant,113 Hastings Rd,GB,Bromley,United Kingdom,,2132,"['113 Hastings Rd', 'Bromley', 'Greater London', 'BR2 8NH', 'United Kingdom']","[{'label': 'display', 'lat': 51.375433363282696, 'lng': 0.04470129047620071}]",51.3754333632827,0.044701290476200715,,BR2 8NH,Greater London,4bcd795acc8cd13a4097c2cf,1.0,Cheap,1.0,6.1
129,129,Toby Carvery,English Restaurant,155 Bromley Common,GB,Bromley,United Kingdom,,922,"['155 Bromley Common', 'Bromley', 'Greater London', 'BR2 9RJ', 'United Kingdom']","[{'label': 'display', 'lat': 51.389206783929396, 'lng': 0.035618312075020885}]",51.389206783929396,0.035618312075020885,,BR2 9RJ,Greater London,4d29f2f4c406721e30887fb6,8.0,,,5.5
133,133,Don Giovanni,Italian Restaurant,Homesdale road,GB,Bromley,United Kingdom,,1330,"['Homesdale road', 'Bromley', 'Greater London', 'United Kingdom']","[{'label': 'display', 'lat': 51.39891850599096, 'lng': 0.03197674558617957}]",51.39891850599096,0.03197674558617957,,,Greater London,4bc1ad0a2a89ef3b329ef288,0.0,Moderate,2.0,
134,134,Happy Garden,Chinese Restaurant,169 Homesdale Road,GB,Bromley,United Kingdom,,1335,"['169 Homesdale Road', 'Bromley', 'Greater London', 'BR1 2 QL', 'United Kingdom']","[{'label': 'display', 'lat': 51.39902492675866, 'lng': 0.031830217971152104}]",51.39902492675865,0.031830217971152104,,BR1 2 QL,Greater London,4ca130d73244b21a6a843903,2.0,Cheap,1.0,
135,135,Homesdale Tandoori,Indian Restaurant,28 Homesdale Rd.,GB,Bromley,United Kingdom,,1336,"['28 Homesdale Rd.', 'Bromley', 'Greater London', 'BR2 9LD', 'United Kingdom']","[{'label': 'display', 'lat': 51.39904921567902, 'lng': 0.031783879023293875}]",51.39904921567903,0.031783879023293875,,BR2 9LD,Greater London,4bc5590f5935c9b63fe1a5d2,2.0,Cheap,1.0,
137,137,Ginger,Indian Restaurant,1-47 Station App,GB,Bromley,United Kingdom,,1514,"['1-47 Station App', 'Bromley', 'Greater London', 'BR 2 7', 'United Kingdom']","[{'label': 'display', 'lat': 51.377003284889625, 'lng': 0.010918583562060408}]",51.377003284889625,0.010918583562060408,,BR 2 7,Greater London,4cb35da939458cfac3e519a0,4.0,Moderate,2.0,
141,141,Ristorante Pizzeria Sapore Vero,Italian Restaurant,78 High St,GB,Beckenham,United Kingdom,,684,"['78 High St', 'Beckenham', 'Greater London', 'BR3 1ED', 'United Kingdom']","[{'label': 'display', 'lat': 51.408287573314965, 'lng': -0.025250561443221246}]",51.40828757331497,-0.025250561443221246,,BR3 1ED,Greater London,50dc967ee4b0cc60e4d02c62,10.0,Moderate,2.0,8.4
143,143,Q Bar and Kitchen,Mediterranean Restaurant,159 High St,GB,Beckenham,United Kingdom,,406,"['159 High St', 'Beckenham', 'Greater London', 'BR3 1AE', 'United Kingdom']","[{'label': 'display', 'lat': 51.406523950791836, 'lng': -0.028859079120635674}]",51.40652395079184,-0.028859079120635674,,BR3 1AE,Greater London,535aba37498ec83eb551668b,3.0,Moderate,2.0,7.7
147,147,Kebab Ye,Fast Food Restaurant,294 High St,GB,Beckenham,United Kingdom,,435,"['294 High St', 'Beckenham', 'Greater London', 'BR3 1DY', 'United Kingdom']","[{'label': 'display', 'lat': 51.40681083122236, 'lng': -0.031375910179095905}]",51.406810831222366,-0.031375910179095905,,BR3 1DY,Greater London,4ed8cce277c8274efb21ebfe,2.0,Cheap,1.0,7.5
148,148,Wild Mango,Indian Restaurant,243 High St,GB,Beckenham,United Kingdom,,441,"['243 High St', 'Beckenham', 'Greater London', 'BR3 1BN', 'United Kingdom']","[{'label': 'display', 'lat': 51.40678220171422, 'lng': -0.03197193145751953}]",51.40678220171422,-0.03197193145751953,,BR3 1BN,Greater London,52680360498ec692ed07103d,2.0,Moderate,2.0,7.4
150,150,Hisar Meze Bar,Mediterranean Restaurant,251 High St,GB,Beckenham,United Kingdom,,456,"['251 High St', 'Beckenham', 'Greater London', 'BR3 1BN', 'United Kingdom']","[{'label': 'display', 'lat': 51.40688596097687, 'lng': -0.03217159505236191}]",51.406885960976865,-0.03217159505236191,,BR3 1BN,Greater London,522325f6498eba5720a4da4f,2.0,Moderate,2.0,7.3
153,153,Chai Naasto,Indian Restaurant,Fairfield Rd,GB,Beckenham,United Kingdom,,531,"['Fairfield Rd', 'Beckenham', 'Greater London', 'BR3 3LD', 'United Kingdom']","[{'label': 'display', 'lat': 51.407298, 'lng': -0.02696}]",51.407298,-0.02696,,BR3 3LD,Greater London,5662e1eb498e3f71fb08c436,7.0,Moderate,2.0,7.3
155,155,Nando's,Portuguese Restaurant,199-203 High St,GB,Beckenham,United Kingdom,,416,"['199-203 High St', 'Beckenham', 'Greater London', 'BR3 1AH', 'United Kingdom']","[{'label': 'display', 'lat': 51.40669054997092, 'lng': -0.030801769696901973}]",51.406690549970925,-0.030801769696901973,,BR3 1AH,Greater London,4ba25cebf964a52055f137e3,10.0,Moderate,2.0,7.2
156,156,Tapeo,Tapas Restaurant,142 High St,GB,London,United Kingdom,,534,"['142 High St', 'London', 'Greater London', 'BR3 1EA', 'United Kingdom']","[{'label': 'display', 'lat': 51.407163889702005, 'lng': -0.026437949368689907}]",51.407163889702005,-0.02643794936868991,,BR3 1EA,Greater London,56d045b6cd10d6b769c13e7a,2.0,Expensive,3.0,7.2
164,164,La Rascasse,French Restaurant,59-63 High St,GB,Beckenham,United Kingdom,,645,"['59-63 High St', 'Beckenham', 'Greater London', 'BR3 1AW', 'United Kingdom']","[{'label': 'display', 'lat': 51.40792254703971, 'lng': -0.025351797615625764}]",51.40792254703971,-0.02535179761562576,,BR3 1AW,Greater London,4bc38c0974a9a59322b4d4f6,7.0,Expensive,3.0,7.0
173,173,Pierluigi's,Italian Restaurant,88-90 High St,GB,Beckenham,United Kingdom,,657,"['88-90 High St', 'Beckenham', 'Greater London', 'BR3 1ED', 'United Kingdom']","[{'label': 'display', 'lat': 51.40803814293177, 'lng': -0.025344165195927176}]",51.40803814293177,-0.025344165195927176,,BR3 1ED,Greater London,4b23d119f964a520565a24e3,7.0,Moderate,2.0,6.7
174,174,Toby Carvery Eden Park,English Restaurant,422 Upper Elmers End Rd,GB,Beckenham,United Kingdom,at Monks Way,1463,"['422 Upper Elmers End Rd (at Monks Way)', 'Beckenham', 'Greater London', 'BR3 3HQ', 'United Kingdom']","[{'label': 'display', 'lat': 51.38995015386145, 'lng': -0.027316615155133818}]",51.389950153861456,-0.027316615155133814,,BR3 3HQ,Greater London,4bed36da91380f4728899f18,5.0,,,7.1
181,181,Mae Ping,Thai Restaurant,16 High St,GB,Beckenham,United Kingdom,,901,"['16 High St', 'Beckenham', 'Greater London', 'BR3 1AY', 'United Kingdom']","[{'label': 'display', 'lat': 51.41036745167988, 'lng': -0.02492315045623744}]",51.410367451679875,-0.024923150456237442,,BR3 1AY,Greater London,4bf2d72b6991c9b6779129e9,7.0,Moderate,2.0,6.5
197,197,KFC,Fast Food Restaurant,"1 Coleman House, High St",GB,Penge,United Kingdom,,2041,"['1 Coleman House, High St', 'Penge', 'Greater London', 'SE20 7EX', 'United Kingdom']","[{'label': 'display', 'lat': 51.41487857786659, 'lng': -0.05256750974858987}]",51.414878577866595,-0.05256750974858987,,SE20 7EX,Greater London,4c44e969f799e21ebb88aea2,2.0,Cheap,1.0,6.0
203,203,McDonald's,Fast Food Restaurant,130 High St,GB,Penge,United Kingdom,,2065,"['130 High St', 'Penge', 'Greater London', 'SE20 7EZ', 'United Kingdom']","[{'label': 'display', 'lat': 51.41503220615511, 'lng': -0.05280553551539338}]",51.41503220615511,-0.05280553551539338,,SE20 7EZ,Greater London,4b88dec2f964a5204d1132e3,4.0,Cheap,1.0,5.7
217,217,Toby Carvery Eden Park,English Restaurant,422 Upper Elmers End Rd,GB,Beckenham,United Kingdom,at Monks Way,2134,"['422 Upper Elmers End Rd (at Monks Way)', 'Beckenham', 'Greater London', 'BR3 3HQ', 'United Kingdom']","[{'label': 'display', 'lat': 51.38995015386145, 'lng': -0.027316615155133818}]",51.389950153861456,-0.027316615155133814,,BR3 3HQ,Greater London,4bed36da91380f4728899f18,5.0,,,7.1
228,228,KFC,Fast Food Restaurant,206 High St,GB,West Wickham,United Kingdom,,1020,"['206 High St', 'West Wickham', 'Greater London', 'BR4 0LZ', 'United Kingdom']","[{'label': 'display', 'lat': 51.377328, 'lng': -0.021364}]",51.377328000000006,-0.021363999999999998,,BR4 0LZ,Greater London,4d14be4ccc216ea89c4b5ed3,2.0,Cheap,1.0,5.9
235,235,McDonald's,Fast Food Restaurant,518-522 Wickham Rd,GB,Shirley,United Kingdom,,1939,"['518-522 Wickham Rd', 'Shirley', 'Greater London', 'CR0 8AD', 'United Kingdom']","[{'label': 'display', 'lat': 51.37666050619978, 'lng': -0.0348081076591115}]",51.37666050619978,-0.0348081076591115,,CR0 8AD,Greater London,4c08b3cdf23f9521cd7c9628,2.0,Cheap,1.0,6.0
238,238,Ginger,Indian Restaurant,1-47 Station App,GB,Bromley,United Kingdom,,1251,"['1-47 Station App', 'Bromley', 'Greater London', 'BR 2 7', 'United Kingdom']","[{'label': 'display', 'lat': 51.377003284889625, 'lng': 0.010918583562060408}]",51.377003284889625,0.010918583562060408,,BR 2 7,Greater London,4cb35da939458cfac3e519a0,4.0,Moderate,2.0,
248,248,Nando's,Portuguese Restaurant,Unit 1A Nugent Shopping Park Cray Avenue,GB,Orpington,United Kingdom,,679,"['Unit 1A Nugent Shopping Park Cray Avenue', 'Orpington', 'Greater London', 'BR5 3RP', 'United Kingdom']","[{'label': 'display', 'lat': 51.39346298288051, 'lng': 0.11221710486526172}]",51.39346298288051,0.11221710486526172,,BR5 3RP,Greater London,4b9154bdf964a520bbb333e3,7.0,Moderate,2.0,7.1
252,252,Indian Essence,Indian Restaurant,176-178 Petts Wood Rd.,GB,Kent,United Kingdom,,2011,"['176-178 Petts Wood Rd.', 'Kent', 'BR5 1LG', 'United Kingdom']","[{'label': 'display', 'lat': 51.390319880128935, 'lng': 0.07540976471171684}]",51.390319880128935,0.07540976471171684,,BR5 1LG,Kent,50ba65bde4b080f30086163f,5.0,Moderate,2.0,7.8
255,255,Cyprianis Bar And Grill,Mediterranean Restaurant,17 Station Sq,GB,London,United Kingdom,,2015,"['17 Station Sq', 'Petts Wood', 'Greater London', 'BR5 1LY', 'United Kingdom']","[{'label': 'display', 'lat': 51.38949509270091, 'lng': 0.0753554076727259}]",51.38949509270091,0.0753554076727259,"Petts Wood and Knoll, London, Greater London",BR5 1LY,Greater London,5294e33111d216a90fbafb32,4.0,Moderate,2.0,7.5
256,256,Reku Zen,Chinese Restaurant,,GB,,United Kingdom,,1143,['United Kingdom'],"[{'label': 'display', 'lat': 51.379581725800534, 'lng': 0.10316108430867144}]",51.379581725800534,0.10316108430867144,,,,4c766218db52b1f7e4357bdc,2.0,Cheap,1.0,6.8
257,257,Xi'an,Chinese Restaurant,324 High St,GB,Orpington,United Kingdom,,1827,"['324 High St', 'Orpington', 'Greater London', 'BR6 0NG', 'United Kingdom']","[{'label': 'display', 'lat': 51.37389975375316, 'lng': 0.09800124258616544}]",51.37389975375316,0.09800124258616544,,BR6 0NG,Greater London,4c421a83e26920a11d8b5fe7,3.0,Cheap,1.0,7.1
259,259,Osteria Da Fabrizio,Italian Restaurant,,GB,,United Kingdom,,1603,['United Kingdom'],"[{'label': 'display', 'lat': 51.375789237102744, 'lng': 0.0991958332769815}]",51.37578923710274,0.0991958332769815,,,,50796745e4b0ce42c63bd0be,5.0,Moderate,2.0,7.0
261,261,Rising Sun,Sushi Restaurant,1 Rice Parade,GB,Orpington,United Kingdom,Fairway,1966,"['1 Rice Parade (Fairway)', 'Orpington', 'Greater London', 'BR5 1EQ', 'United Kingdom']","[{'label': 'display', 'lat': 51.388643578273786, 'lng': 0.07611572742462158}]",51.388643578273786,0.07611572742462157,Petts Wood,BR5 1EQ,Greater London,4d1cca39c68aa1cdebb0a5e2,4.0,Moderate,2.0,7.0
262,262,Fiesta Mexicana,Mexican Restaurant,,GB,,United Kingdom,,1198,['United Kingdom'],"[{'label': 'display', 'lat': 51.379134358653005, 'lng': 0.10233840076970038}]",51.37913435865301,0.10233840076970037,,,,4bf84c5d5ec320a1328888d3,3.0,Cheap,1.0,6.6
263,263,The Rib Shack Bar And Grill,American Restaurant,5 Station Sq,GB,London,United Kingdom,,2013,"['5 Station Sq', 'Petts Wood', 'Greater London', 'BR5 1LY', 'United Kingdom']","[{'label': 'display', 'lat': 51.389956191350485, 'lng': 0.07537949517415779}]",51.389956191350485,0.07537949517415779,,BR5 1LY,Greater London,51291469e4b0f4c984ef2e32,2.0,Moderate,2.0,6.9
264,264,Thai Moom,Thai Restaurant,"131, Queensway Petts Wood",GB,Bromley,United Kingdom,,2311,"['131, Queensway Petts Wood', 'Bromley', 'Greater London', 'BR5 1DG', 'United Kingdom']","[{'label': 'display', 'lat': 51.38987176492203, 'lng': 0.0710905460661748}]",51.38987176492203,0.0710905460661748,,BR5 1DG,Greater London,4dd11fe0183899ddfb143af9,2.0,Moderate,2.0,7.0
269,269,Pato Lounge,Restaurant,202-206 High St,GB,Orpington,United Kingdom,,1459,"['202-206 High St', 'Orpington', 'Greater London', 'BR6 0JN', 'United Kingdom']","[{'label': 'display', 'lat': 51.3770085608021, 'lng': 0.0999937959360211}]",51.377008560802096,0.0999937959360211,,BR6 0JN,Greater London,55ce16bb498e503baeacebc8,5.0,Moderate,2.0,6.4
272,272,Bella Italia,Italian Restaurant,"The Walnuts,Unit 40B",GB,Orpington,United Kingdom,,1490,"['The Walnuts,Unit 40B', 'Orpington', 'Greater London', 'BR6 0TW', 'United Kingdom']","[{'label': 'display', 'lat': 51.37658109673129, 'lng': 0.10127717206620397}]",51.37658109673129,0.10127717206620396,,BR6 0TW,Greater London,56d04210cd1060338d0c5f47,1.0,Moderate,2.0,6.2
275,275,KFC,Fast Food Restaurant,172 High St.,GB,Orpington,United Kingdom,,1359,"['172 High St.', 'Orpington', 'Greater London', 'BR6 0JW', 'United Kingdom']","[{'label': 'display', 'lat': 51.37776354216559, 'lng': 0.10138010008675348}]",51.377763542165596,0.10138010008675348,,BR6 0JW,Greater London,4c54e0d4b426ef3b3d19988a,0.0,Cheap,1.0,6.0
282,282,Uskudar Turkish Restaurant,Turkish Restaurant,61 Queensway,GB,London,United Kingdom,,2141,"['61 Queensway', 'Petts Wood', 'Greater London', 'BR5 1DQ', 'United Kingdom']","[{'label': 'display', 'lat': 51.38792841426172, 'lng': 0.07368967451720333}]",51.38792841426172,0.07368967451720332,,BR5 1DQ,Greater London,4d0536f037036dcbed5e15fb,4.0,Moderate,2.0,6.2
288,288,McDonald's,Fast Food Restaurant,291-293 High St,GB,Orpington,United Kingdom,,1784,"['291-293 High St', 'Orpington', 'Greater London', 'BR6 0NN', 'United Kingdom']","[{'label': 'display', 'lat': 51.3742554801003, 'lng': 0.09824873256729473}]",51.374255480100295,0.09824873256729473,,BR6 0NN,Greater London,4c0b5dbf6071a5937534e132,3.0,Cheap,1.0,5.8
294,294,Burger King,Fast Food Restaurant,228 High St,GB,Orpington,United Kingdom,,1535,"['228 High St', 'Orpington', 'Greater London', 'BR6 0LS', 'United Kingdom']","[{'label': 'display', 'lat': 51.376362272006624, 'lng': 0.09959158519734523}]",51.37636227200662,0.09959158519734523,,BR6 0LS,Greater London,4cdd6bff14119eb0393bed33,1.0,Cheap,1.0,5.5
297,297,Desperados,Mexican Restaurant,6 Station Square,GB,Petts Wood,United Kingdom,,2044,"['6 Station Square', 'Petts Wood', 'United Kingdom']","[{'label': 'display', 'lat': 51.389903, 'lng': 0.074922}]",51.389903000000004,0.074922,,,,4ca4e272d971b1f7e6bef1e0,2.0,Moderate,2.0,
311,311,Xi'an,Chinese Restaurant,324 High St,GB,Orpington,United Kingdom,,966,"['324 High St', 'Orpington', 'Greater London', 'BR6 0NG', 'United Kingdom']","[{'label': 'display', 'lat': 51.37389975375316, 'lng': 0.09800124258616544}]",51.37389975375316,0.09800124258616544,,BR6 0NG,Greater London,4c421a83e26920a11d8b5fe7,3.0,Cheap,1.0,7.1
312,312,Osteria Da Fabrizio,Italian Restaurant,,GB,,United Kingdom,,1192,['United Kingdom'],"[{'label': 'display', 'lat': 51.375789237102744, 'lng': 0.0991958332769815}]",51.37578923710274,0.0991958332769815,,,,50796745e4b0ce42c63bd0be,5.0,Moderate,2.0,7.0
317,317,Reku Zen,Chinese Restaurant,,GB,,United Kingdom,,1688,['United Kingdom'],"[{'label': 'display', 'lat': 51.379581725800534, 'lng': 0.10316108430867144}]",51.379581725800534,0.10316108430867144,,,,4c766218db52b1f7e4357bdc,2.0,Cheap,1.0,6.8
318,318,Fiesta Mexicana,Mexican Restaurant,,GB,,United Kingdom,,1619,['United Kingdom'],"[{'label': 'display', 'lat': 51.379134358653005, 'lng': 0.10233840076970038}]",51.37913435865301,0.10233840076970037,,,,4bf84c5d5ec320a1328888d3,3.0,Cheap,1.0,6.6
319,319,Pato Lounge,Restaurant,202-206 High St,GB,Orpington,United Kingdom,,1339,"['202-206 High St', 'Orpington', 'Greater London', 'BR6 0JN', 'United Kingdom']","[{'label': 'display', 'lat': 51.3770085608021, 'lng': 0.0999937959360211}]",51.377008560802096,0.0999937959360211,,BR6 0JN,Greater London,55ce16bb498e503baeacebc8,5.0,Moderate,2.0,6.4
322,322,Bella Italia,Italian Restaurant,"The Walnuts,Unit 40B",GB,Orpington,United Kingdom,,1329,"['The Walnuts,Unit 40B', 'Orpington', 'Greater London', 'BR6 0TW', 'United Kingdom']","[{'label': 'display', 'lat': 51.37658109673129, 'lng': 0.10127717206620397}]",51.37658109673129,0.10127717206620396,,BR6 0TW,Greater London,56d04210cd1060338d0c5f47,1.0,Moderate,2.0,6.2
326,326,KFC,Fast Food Restaurant,172 High St.,GB,Orpington,United Kingdom,,1453,"['172 High St.', 'Orpington', 'Greater London', 'BR6 0JW', 'United Kingdom']","[{'label': 'display', 'lat': 51.37776354216559, 'lng': 0.10138010008675348}]",51.377763542165596,0.10138010008675348,,BR6 0JW,Greater London,4c54e0d4b426ef3b3d19988a,0.0,Cheap,1.0,6.0
329,329,Frankie & Benny's,American Restaurant,"Unit 2A, Farnborough Way",GB,Kent,United Kingdom,,1477,"['Unit 2A, Farnborough Way', 'Kent', 'BR6 7DH', 'United Kingdom']","[{'label': 'display', 'lat': 51.36179, 'lng': 0.072911}]",51.36179,0.072911,,BR6 7DH,Kent,4b6433f5f964a520e1a32ae3,8.0,Moderate,2.0,6.0
330,330,McDonald's,Fast Food Restaurant,291-293 High St,GB,Orpington,United Kingdom,,1009,"['291-293 High St', 'Orpington', 'Greater London', 'BR6 0NN', 'United Kingdom']","[{'label': 'display', 'lat': 51.3742554801003, 'lng': 0.09824873256729473}]",51.374255480100295,0.09824873256729473,,BR6 0NN,Greater London,4c0b5dbf6071a5937534e132,3.0,Cheap,1.0,5.8
338,338,Burger King,Fast Food Restaurant,228 High St,GB,Orpington,United Kingdom,,1262,"['228 High St', 'Orpington', 'Greater London', 'BR6 0LS', 'United Kingdom']","[{'label': 'display', 'lat': 51.376362272006624, 'lng': 0.09959158519734523}]",51.37636227200662,0.09959158519734523,,BR6 0LS,Greater London,4cdd6bff14119eb0393bed33,1.0,Cheap,1.0,5.5
340,340,Windsor Fish Bar,Fast Food Restaurant,,GB,,United Kingdom,,1326,['United Kingdom'],"[{'label': 'display', 'lat': 51.35634208586648, 'lng': 0.10491407556523781}]",51.35634208586648,0.1049140755652378,,,,4bcf3ec6b221c9b613a6d1d0,1.0,Cheap,1.0,
354,354,Indian Essence,Indian Restaurant,176-178 Petts Wood Rd.,GB,Kent,United Kingdom,,2222,"['176-178 Petts Wood Rd.', 'Kent', 'BR5 1LG', 'United Kingdom']","[{'label': 'display', 'lat': 51.390319880128935, 'lng': 0.07540976471171684}]",51.390319880128935,0.07540976471171684,,BR5 1LG,Kent,50ba65bde4b080f30086163f,5.0,Moderate,2.0,7.8
357,357,Cyprianis Bar And Grill,Mediterranean Restaurant,17 Station Sq,GB,London,United Kingdom,,2314,"['17 Station Sq', 'Petts Wood', 'Greater London', 'BR5 1LY', 'United Kingdom']","[{'label': 'display', 'lat': 51.38949509270091, 'lng': 0.0753554076727259}]",51.38949509270091,0.0753554076727259,"Petts Wood and Knoll, London, Greater London",BR5 1LY,Greater London,5294e33111d216a90fbafb32,4.0,Moderate,2.0,7.5
359,359,Zizzi,Italian Restaurant,19 High St,GB,Chislehurst,United Kingdom,,830,"['19 High St', 'Chislehurst', 'Greater London', 'BR7 5AE', 'United Kingdom']","[{'label': 'display', 'lat': 51.4172109149841, 'lng': 0.06815478453539546}]",51.4172109149841,0.06815478453539546,,BR7 5AE,Greater London,4c0173af58dbc928ab62ee6b,2.0,Moderate,2.0,6.5
361,361,Thai Moom,Thai Restaurant,"131, Queensway Petts Wood",GB,Bromley,United Kingdom,,2263,"['131, Queensway Petts Wood', 'Bromley', 'Greater London', 'BR5 1DG', 'United Kingdom']","[{'label': 'display', 'lat': 51.38987176492203, 'lng': 0.0710905460661748}]",51.38987176492203,0.0710905460661748,,BR5 1DG,Greater London,4dd11fe0183899ddfb143af9,2.0,Moderate,2.0,7.0
363,363,Rising Sun,Sushi Restaurant,1 Rice Parade,GB,Orpington,United Kingdom,Fairway,2413,"['1 Rice Parade (Fairway)', 'Orpington', 'Greater London', 'BR5 1EQ', 'United Kingdom']","[{'label': 'display', 'lat': 51.388643578273786, 'lng': 0.07611572742462158}]",51.388643578273786,0.07611572742462157,Petts Wood,BR5 1EQ,Greater London,4d1cca39c68aa1cdebb0a5e2,4.0,Moderate,2.0,7.0
364,364,The Rib Shack Bar And Grill,American Restaurant,5 Station Sq,GB,London,United Kingdom,,2263,"['5 Station Sq', 'Petts Wood', 'Greater London', 'BR5 1LY', 'United Kingdom']","[{'label': 'display', 'lat': 51.389956191350485, 'lng': 0.07537949517415779}]",51.389956191350485,0.07537949517415779,,BR5 1LY,Greater London,51291469e4b0f4c984ef2e32,2.0,Moderate,2.0,6.9
366,366,Prezzo,Italian Restaurant,95-97 High St,GB,Chislehurst,United Kingdom,,1130,"['95-97 High St', 'Chislehurst', 'Greater London', 'BR7 5AG', 'United Kingdom']","[{'label': 'display', 'lat': 51.41946479794293, 'lng': 0.06557548230784398}]",51.419464797942936,0.06557548230784398,,BR7 5AG,Greater London,4dd941d4d22d38ef431473c2,4.0,Moderate,2.0,6.3
372,372,Uskudar Turkish Restaurant,Turkish Restaurant,61 Queensway,GB,London,United Kingdom,,2480,"['61 Queensway', 'Petts Wood', 'Greater London', 'BR5 1DQ', 'United Kingdom']","[{'label': 'display', 'lat': 51.38792841426172, 'lng': 0.07368967451720333}]",51.38792841426172,0.07368967451720332,,BR5 1DQ,Greater London,4d0536f037036dcbed5e15fb,4.0,Moderate,2.0,6.2
385,385,Brittania Fish & Chips,Fast Food Restaurant,,GB,,United Kingdom,,2386,['United Kingdom'],"[{'label': 'display', 'lat': 51.38875893803595, 'lng': 0.07281841634373949}]",51.388758938035956,0.07281841634373949,,,,4bb60ab12ea19521cc09ab2f,0.0,Cheap,1.0,
395,395,Bao Bao,Asian Restaurant,Unit 44-45 Boxpark,GB,Croydon,United Kingdom,99 George St,1351,"['Unit 44-45 Boxpark (99 George St)', 'Croydon', 'Greater London', 'CR0 1LD', 'United Kingdom']","[{'label': 'display', 'lat': 51.37498173152558, 'lng': -0.09357690811157227}]",51.37498173152557,-0.09357690811157228,,CR0 1LD,Greater London,5814d17d38fa18c20f2283d6,3.0,Moderate,2.0,7.7
397,397,Coqfighter Chicken & Beer,Korean Restaurant,Unit 19 Boxpark,GB,Croydon,United Kingdom,99 George St,1354,"['Unit 19 Boxpark (99 George St)', 'Croydon', 'Greater London', 'CR0 1LD', 'United Kingdom']","[{'label': 'display', 'lat': 51.37504365206947, 'lng': -0.0935912005731379}]",51.37504365206947,-0.0935912005731379,,CR0 1LD,Greater London,5814d46638fa8201ad9efd44,3.0,Moderate,2.0,7.6
398,398,Nando's,Portuguese Restaurant,26 High St,GB,Croydon,United Kingdom,Grants Entertainment Centre,1776,"['26 High St (Grants Entertainment Centre)', 'Croydon', 'Greater London', 'CR0 1GT', 'United Kingdom']","[{'label': 'display', 'lat': 51.37280263847501, 'lng': -0.10018278159571932}]",51.37280263847501,-0.10018278159571932,,CR0 1GT,Greater London,4b969831f964a5203ad734e3,16.0,Moderate,2.0,7.9
404,404,Karnavar Restaurant,Indian Restaurant,62 South End,GB,Croydon,United Kingdom,,1850,"['62 South End', 'Croydon', 'Greater London', 'CR0 1DP', 'United Kingdom']","[{'label': 'display', 'lat': 51.365488699667566, 'lng': -0.09897044841981988}]",51.365488699667566,-0.09897044841981988,,CR0 1DP,Greater London,53559c06498ee46285abfa27,7.0,Moderate,2.0,7.8
407,407,Galicia,Spanish Restaurant,269-275 High St,GB,Croydon,United Kingdom,,1763,"['269-275 High St', 'Croydon', 'Greater London', 'CR0 1QH', 'United Kingdom']","[{'label': 'display', 'lat': 51.36845757906705, 'lng': -0.09927934900298166}]",51.36845757906705,-0.09927934900298166,,CR0 1QH,Greater London,4bac018df964a5207fdd3ae3,8.0,Moderate,2.0,7.6
409,409,The Gold Coast Bar & Restaurant,African Restaurant,224 Portland Rd,GB,South Norwood,United Kingdom,,2250,"['224 Portland Rd', 'South Norwood', 'Greater London', 'SE25 4QB', 'United Kingdom']","[{'label': 'display', 'lat': 51.39177138157308, 'lng': -0.06633652235879549}]",51.39177138157308,-0.06633652235879549,,SE25 4QB,Greater London,4b5a41def964a52002b828e3,5.0,Moderate,2.0,8.0
412,412,Uncle Lim's Malaysian Kitchen,Malay Restaurant,Upper North Arcade,GB,Croydon,United Kingdom,Whitgift Centre,1824,"['Upper North Arcade (Whitgift Centre)', 'Croydon', 'Greater London', 'CR0 1LP', 'United Kingdom']","[{'label': 'display', 'lat': 51.37521540025681, 'lng': -0.10045385615353232}]",51.37521540025681,-0.10045385615353232,,CR0 1LP,Greater London,4afed94cf964a520de3022e3,11.0,Moderate,2.0,7.6
413,413,Aqua Bar & Grill,Mediterranean Restaurant,33-35 South End,GB,Croydon,United Kingdom,,1797,"['33-35 South End', 'Croydon', 'Greater London', 'CR0 1BE', 'United Kingdom']","[{'label': 'display', 'lat': 51.36672805229652, 'lng': -0.09894737644928685}]",51.36672805229652,-0.09894737644928683,,CR0 1BE,Greater London,4c7af47aa86837040564154d,4.0,Expensive,3.0,7.5
414,414,Little Bay,Eastern European Restaurant,32 Selsdon Rd,GB,Croydon,United Kingdom,,1863,"['32 Selsdon Rd', 'Croydon', 'Greater London', 'CR2 6PB', 'United Kingdom']","[{'label': 'display', 'lat': 51.36221284124898, 'lng': -0.09611178562925375}]",51.36221284124898,-0.09611178562925377,"South Croydon, London, Greater London",CR2 6PB,Greater London,4bec480e75b2c9b6bc43438d,17.0,Moderate,2.0,7.5
417,417,Thai Express UK,Thai Restaurant,Unit 32-33 Boxpark,GB,Croydon,United Kingdom,99 George St,1357,"['Unit 32-33 Boxpark (99 George St)', 'Croydon', 'Greater London', 'CR0 1LD', 'United Kingdom']","[{'label': 'display', 'lat': 51.37502918435571, 'lng': -0.0936379465804956}]",51.375029184355704,-0.0936379465804956,,CR0 1LD,Greater London,5814da7138fa4159e5484315,1.0,Moderate,2.0,7.3
419,419,Preto,Brazilian Restaurant,,GB,,United Kingdom,,1774,['United Kingdom'],"[{'label': 'display', 'lat': 51.3724719646455, 'lng': -0.10015847665116956}]",51.3724719646455,-0.10015847665116956,,,,50f70539e4b0e09a2c5be456,5.0,Moderate,2.0,7.4
423,423,Anabella's Kitchen,Mediterranean Restaurant,299 High Street,GB,Croydon,United Kingdom,,1768,"['299 High Street', 'Croydon', 'Greater London', 'CR0 1QL', 'United Kingdom']","[{'label': 'display', 'lat': 51.3679313659668, 'lng': -0.09913444519042969}]",51.3679313659668,-0.09913444519042967,,CR0 1QL,Greater London,54f22fb7498ee77ce4396ab6,7.0,Moderate,2.0,7.3
425,425,Hot Grill,Middle Eastern Restaurant,27 Whitehorse Rd,GB,Croydon,United Kingdom,,2094,"['27 Whitehorse Rd', 'Croydon', 'Greater London', 'CR0 2JH', 'United Kingdom']","[{'label': 'display', 'lat': 51.384037, 'lng': -0.098108}]",51.384037,-0.098108,,CR0 2JH,Greater London,52fe95f1498eec3c1461684d,4.0,Moderate,2.0,7.5
427,427,Sangri,Indian Restaurant,265 High Street,GB,Croydon,United Kingdom,,1762,"['265 High Street', 'Croydon', 'Greater London', 'CR0 1QH', 'United Kingdom']","[{'label': 'display', 'lat': 51.36852191929014, 'lng': -0.0992887201008723}]",51.36852191929014,-0.0992887201008723,,CR0 1QH,Greater London,4bed96173372c9285add1114,6.0,Cheap,1.0,7.1
429,429,Apatura,Mediterranean Restaurant,14 South End Rd. Croydon,GB,Surrey,United Kingdom,,1799,"['14 South End Rd. Croydon', 'Surrey', 'CR0 1DL', 'United Kingdom']","[{'label': 'display', 'lat': 51.36675953865051, 'lng': -0.098993}]",51.366759538650506,-0.098993,,CR0 1DL,Surrey,4ce837ca678aa0933d46e7ea,8.0,Moderate,2.0,7.1
435,435,Turtle Bay,Caribbean Restaurant,16 High St,GB,Croydon,United Kingdom,Unit 7 Grants Entertainment Centre,1795,"['16 High St (Unit 7 Grants Entertainment Centre)', 'Croydon', 'Greater London', 'CR0 1YA', 'United Kingdom']","[{'label': 'display', 'lat': 51.373101, 'lng': -0.100426}]",51.373101,-0.100426,,CR0 1YA,Greater London,5891da7cb3cdc86ccd51b8a8,2.0,Moderate,2.0,7.0
445,445,YO! Sushi,Sushi Restaurant,21 North End Rd.,GB,Croydon,United Kingdom,,2047,"['21 North End Rd.', 'Croydon', 'Greater London', 'CR0 1TY', 'United Kingdom']","[{'label': 'display', 'lat': 51.37584622466272, 'lng': -0.10352164300350906}]",51.375846224662716,-0.10352164300350906,,CR0 1TY,Greater London,4e0600d57d8b2a0180514105,2.0,Moderate,2.0,6.9
448,448,Coombe Lodge (Beefeater),Restaurant,104 Coombe Rd,GB,Croydon,United Kingdom,,1098,"['104 Coombe Rd', 'Croydon', 'Greater London', 'CR0 5RB', 'United Kingdom']","[{'label': 'display', 'lat': 51.36254688260847, 'lng': -0.07160027655361718}]",51.36254688260847,-0.07160027655361717,,CR0 5RB,Greater London,4c4d6d6614b7b713c5cb5878,11.0,Moderate,2.0,6.5
449,449,Spice'n'ice,Indian Restaurant,3-5 South Park Hill Rd,GB,Croydon,United Kingdom,South Park Hotel,1331,"['3-5 South Park Hill Rd (South Park Hotel)', 'Croydon', 'Greater London', 'CR2 7DY', 'United Kingdom']","[{'label': 'display', 'lat': 51.36527923218268, 'lng': -0.09021771906998817}]",51.36527923218269,-0.09021771906998816,,CR2 7DY,Greater London,4d6038a629ef236a1ea3a259,7.0,Moderate,2.0,6.6
461,461,Cadillac Diner,American Restaurant,147 Wickham Rd,GB,Shirley,United Kingdom,,1744,"['147 Wickham Rd', 'Shirley', 'Greater London', 'CR0 8TE', 'United Kingdom']","[{'label': 'display', 'lat': 51.37462161560038, 'lng': -0.04981960911867283}]",51.37462161560038,-0.04981960911867283,,CR0 8TE,Greater London,4efb565f0039deea01b38eff,4.0,Moderate,2.0,6.3
463,463,The Banana Leaf,Indian Restaurant,7 Lower Addiscombe Rd,GB,Croydon,United Kingdom,,1375,"['7 Lower Addiscombe Rd', 'Croydon', 'Greater London', 'CR0 6PQ', 'United Kingdom']","[{'label': 'display', 'lat': 51.380759, 'lng': -0.0889624}]",51.380759000000005,-0.0889624,,CR0 6PQ,Greater London,4bb508140ef1c9b601c8f412,7.0,Moderate,2.0,6.1
465,465,KFC,Fast Food Restaurant,253 Lower Addiscombe Rd,GB,Croydon,United Kingdom,,788,"['253 Lower Addiscombe Rd', 'Croydon', 'Greater London', 'CR 0 7', 'United Kingdom']","[{'label': 'display', 'lat': 51.37930789407969, 'lng': -0.07486581802368164}]",51.37930789407969,-0.07486581802368164,,CR 0 7,Greater London,4e0a1a7b2271dfa46bc162c4,0.0,Cheap,1.0,5.8
467,467,Bagatti's,Italian Restaurant,South End,GB,Croydon,United Kingdom,Aberdeen road,1851,"['South End (Aberdeen road)', 'Croydon', 'Greater London', 'CR0 1DP', 'United Kingdom']","[{'label': 'display', 'lat': 51.365568599044444, 'lng': -0.09904001646915009}]",51.36556859904446,-0.09904001646915007,,CR0 1DP,Greater London,4bc9991768f976b0028b5d83,8.0,Moderate,2.0,6.2
477,477,KFC,Fast Food Restaurant,95a South End,GB,Croydon,United Kingdom,,1907,"['95a South End', 'Croydon', 'Greater London', 'CR0 1BG', 'United Kingdom']","[{'label': 'display', 'lat': 51.36424362659454, 'lng': -0.098906}]",51.36424362659454,-0.098906,,CR0 1BG,Greater London,4bc866250050b7130641ba3b,0.0,Cheap,1.0,5.8
482,482,Fish & Grill,Seafood Restaurant,48-50 South End,GB,Croydon,United Kingdom,,1847,"['48-50 South End', 'Croydon', 'Greater London', 'CR0 1DP', 'United Kingdom']","[{'label': 'display', 'lat': 51.36572927757591, 'lng': -0.09909442925433493}]",51.3657292775759,-0.09909442925433493,,CR0 1DP,Greater London,4bf437d5cad2c92831aa9b99,11.0,Cheap,1.0,5.6
484,484,Zizzi,Italian Restaurant,57-59 South End,GB,Croydon,United Kingdom,,1840,"['57-59 South End', 'Croydon', 'Greater London', 'CR0 1BF', 'United Kingdom']","[{'label': 'display', 'lat': 51.36570135242092, 'lng': -0.0989580104640575}]",51.36570135242092,-0.0989580104640575,,CR0 1BF,Greater London,4c30fe96452620a1a0f81f0f,7.0,Moderate,2.0,5.6
491,491,Little Bay,Eastern European Restaurant,32 Selsdon Rd,GB,Croydon,United Kingdom,,1781,"['32 Selsdon Rd', 'Croydon', 'Greater London', 'CR2 6PB', 'United Kingdom']","[{'label': 'display', 'lat': 51.36221284124898, 'lng': -0.09611178562925375}]",51.36221284124898,-0.09611178562925377,"South Croydon, London, Greater London",CR2 6PB,Greater London,4bec480e75b2c9b6bc43438d,17.0,Moderate,2.0,7.5
492,492,Karnavar Restaurant,Indian Restaurant,62 South End,GB,Croydon,United Kingdom,,2190,"['62 South End', 'Croydon', 'Greater London', 'CR0 1DP', 'United Kingdom']","[{'label': 'display', 'lat': 51.365488699667566, 'lng': -0.09897044841981988}]",51.365488699667566,-0.09897044841981988,,CR0 1DP,Greater London,53559c06498ee46285abfa27,7.0,Moderate,2.0,7.8
494,494,Aqua Bar & Grill,Mediterranean Restaurant,33-35 South End,GB,Croydon,United Kingdom,,2301,"['33-35 South End', 'Croydon', 'Greater London', 'CR0 1BE', 'United Kingdom']","[{'label': 'display', 'lat': 51.36672805229652, 'lng': -0.09894737644928685}]",51.36672805229652,-0.09894737644928683,,CR0 1BE,Greater London,4c7af47aa86837040564154d,4.0,Expensive,3.0,7.5
495,495,Galicia,Spanish Restaurant,269-275 High St,GB,Croydon,United Kingdom,,2473,"['269-275 High St', 'Croydon', 'Greater London', 'CR0 1QH', 'United Kingdom']","[{'label': 'display', 'lat': 51.36845757906705, 'lng': -0.09927934900298166}]",51.36845757906705,-0.09927934900298166,,CR0 1QH,Greater London,4bac018df964a5207fdd3ae3,8.0,Moderate,2.0,7.6
499,499,Anabella's Kitchen,Mediterranean Restaurant,299 High Street,GB,Croydon,United Kingdom,,2419,"['299 High Street', 'Croydon', 'Greater London', 'CR0 1QL', 'United Kingdom']","[{'label': 'display', 'lat': 51.3679313659668, 'lng': -0.09913444519042969}]",51.3679313659668,-0.09913444519042967,,CR0 1QL,Greater London,54f22fb7498ee77ce4396ab6,7.0,Moderate,2.0,7.3
500,500,Apatura,Mediterranean Restaurant,14 South End Rd. Croydon,GB,Surrey,United Kingdom,,2305,"['14 South End Rd. Croydon', 'Surrey', 'CR0 1DL', 'United Kingdom']","[{'label': 'display', 'lat': 51.36675953865051, 'lng': -0.098993}]",51.366759538650506,-0.098993,,CR0 1DL,Surrey,4ce837ca678aa0933d46e7ea,8.0,Moderate,2.0,7.1
502,502,Sangri,Indian Restaurant,265 High Street,GB,Croydon,United Kingdom,,2479,"['265 High Street', 'Croydon', 'Greater London', 'CR0 1QH', 'United Kingdom']","[{'label': 'display', 'lat': 51.36852191929014, 'lng': -0.0992887201008723}]",51.36852191929014,-0.0992887201008723,,CR0 1QH,Greater London,4bed96173372c9285add1114,6.0,Cheap,1.0,7.1
506,506,Coombe Lodge (Beefeater),Restaurant,104 Coombe Rd,GB,Croydon,United Kingdom,,1528,"['104 Coombe Rd', 'Croydon', 'Greater London', 'CR0 5RB', 'United Kingdom']","[{'label': 'display', 'lat': 51.36254688260847, 'lng': -0.07160027655361718}]",51.36254688260847,-0.07160027655361717,,CR0 5RB,Greater London,4c4d6d6614b7b713c5cb5878,11.0,Moderate,2.0,6.5
507,507,Spice'n'ice,Indian Restaurant,3-5 South Park Hill Rd,GB,Croydon,United Kingdom,South Park Hotel,1863,"['3-5 South Park Hill Rd (South Park Hotel)', 'Croydon', 'Greater London', 'CR2 7DY', 'United Kingdom']","[{'label': 'display', 'lat': 51.36527923218268, 'lng': -0.09021771906998817}]",51.36527923218269,-0.09021771906998816,,CR2 7DY,Greater London,4d6038a629ef236a1ea3a259,7.0,Moderate,2.0,6.6
512,512,Toby Carvery,English Restaurant,415 Brighton Rd,GB,Croydon,United Kingdom,,1421,"['415 Brighton Rd', 'Croydon', 'Greater London', 'CR2 6EJ', 'United Kingdom']","[{'label': 'display', 'lat': 51.349538661486285, 'lng': -0.10031479154647162}]",51.34953866148629,-0.10031479154647162,,CR2 6EJ,Greater London,4ba1d37bf964a52006ce37e3,4.0,,,6.0
513,513,Bagatti's,Italian Restaurant,South End,GB,Croydon,United Kingdom,Aberdeen road,2200,"['South End (Aberdeen road)', 'Croydon', 'Greater London', 'CR0 1DP', 'United Kingdom']","[{'label': 'display', 'lat': 51.365568599044444, 'lng': -0.09904001646915009}]",51.36556859904446,-0.09904001646915007,,CR0 1DP,Greater London,4bc9991768f976b0028b5d83,8.0,Moderate,2.0,6.2
518,518,KFC,Fast Food Restaurant,95a South End,GB,Croydon,United Kingdom,,2079,"['95a South End', 'Croydon', 'Greater London', 'CR0 1BG', 'United Kingdom']","[{'label': 'display', 'lat': 51.36424362659454, 'lng': -0.098906}]",51.36424362659454,-0.098906,,CR0 1BG,Greater London,4bc866250050b7130641ba3b,0.0,Cheap,1.0,5.8
527,527,The Chateau,French Restaurant,Coombe Lane,GB,Croydon,United Kingdom,,1610,"['Coombe Lane', 'Croydon', 'Greater London', 'CR0 5RE', 'United Kingdom']","[{'label': 'display', 'lat': 51.3621079755026, 'lng': -0.06763458251953125}]",51.3621079755026,-0.06763458251953125,,CR0 5RE,Greater London,4bd4749c4e32d13a581dbf80,1.0,Expensive,3.0,
529,529,Fish & Grill,Seafood Restaurant,48-50 South End,GB,Croydon,United Kingdom,,2217,"['48-50 South End', 'Croydon', 'Greater London', 'CR0 1DP', 'United Kingdom']","[{'label': 'display', 'lat': 51.36572927757591, 'lng': -0.09909442925433493}]",51.3657292775759,-0.09909442925433493,,CR0 1DP,Greater London,4bf437d5cad2c92831aa9b99,11.0,Cheap,1.0,5.6
530,530,Zizzi,Italian Restaurant,57-59 South End,GB,Croydon,United Kingdom,,2209,"['57-59 South End', 'Croydon', 'Greater London', 'CR0 1BF', 'United Kingdom']","[{'label': 'display', 'lat': 51.36570135242092, 'lng': -0.0989580104640575}]",51.36570135242092,-0.0989580104640575,,CR0 1BF,Greater London,4c30fe96452620a1a0f81f0f,7.0,Moderate,2.0,5.6
535,535,Khyber Restaurant,Indian Restaurant,284 - 288 High St,GB,Surrey,United Kingdom,,2484,"['284 - 288 High St', 'Surrey', 'CR0 1NG', 'United Kingdom']","[{'label': 'display', 'lat': 51.368607532973236, 'lng': -0.09920339939756682}]",51.36860753297324,-0.09920339939756682,,CR0 1NG,Surrey,4bee3b49ac3cef3bb1b3f4f9,1.0,Moderate,2.0,
536,536,Toby Carvery,English Restaurant,54 Commonside W,GB,Figge's Marsh,United Kingdom,,458,"['54 Commonside W', ""Figge's Marsh"", 'Greater London', 'CR4 4HB', 'United Kingdom']","[{'label': 'display', 'lat': 51.40043565637624, 'lng': -0.16098234158085606}]",51.40043565637624,-0.16098234158085606,,CR4 4HB,Greater London,4db570a193a017099deb4d34,6.0,,,7.6
545,545,Pizzeria Sette Bello,Italian Restaurant,Amen Corner,GB,London,United Kingdom,Mitcham Road,2097,"['Amen Corner (Mitcham Road)', 'London', 'Greater London', 'SW17 9JE', 'United Kingdom']","[{'label': 'display', 'lat': 51.422952376792686, 'lng': -0.1600940342727911}]",51.422952376792686,-0.1600940342727911,,SW17 9JE,Greater London,4cb5fc1a8db0a143d0956616,11.0,Cheap,1.0,8.2
546,546,Gourmet Kebab House,Fast Food Restaurant,30 Merton High St,GB,London,United Kingdom,,2147,"['30 Merton High St', 'Merton', 'Greater London', 'SW19 1DN', 'United Kingdom']","[{'label': 'display', 'lat': 51.41628171576929, 'lng': -0.182171084523026}]",51.416281715769294,-0.18217108452302602,,SW19 1DN,Greater London,4d34ccd6329e54815253c51d,3.0,Cheap,1.0,8.2
547,547,Rock Star Sushi,Sushi Restaurant,Merton Abbey Mills,GB,London,United Kingdom,,2013,"['Merton Abbey Mills', 'London', 'Greater London', 'United Kingdom']","[{'label': 'display', 'lat': 51.413101, 'lng': -0.183323}]",51.413101,-0.183323,,,Greater London,538b1aa3498e1b0d8c19568b,9.0,Moderate,2.0,8.0
548,548,Daddy Bao,Asian Restaurant,113 Mitcham Road,GB,London,United Kingdom,,2419,"['113 Mitcham Road', 'London', 'Greater London', 'SW17 9PE', 'United Kingdom']","[{'label': 'display', 'lat': 51.425509, 'lng': -0.164612}]",51.425509000000005,-0.16461199999999998,,SW17 9PE,Greater London,5a85de2b2db4a9513d6f9639,5.0,Moderate,2.0,8.6
550,550,Nando's,Portuguese Restaurant,Unit 12 Tandem Centre,GB,Colliers Wood,United Kingdom,,1743,"['Unit 12 Tandem Centre', 'Colliers Wood', 'Greater London', 'SW19 2TY', 'United Kingdom']","[{'label': 'display', 'lat': 51.41379065225573, 'lng': -0.17791737435550922}]",51.41379065225573,-0.17791737435550922,,SW19 2TY,Greater London,4b5c56d1f964a520952b29e3,7.0,Moderate,2.0,7.6
556,556,Chez Vous,Lebanese Restaurant,,GB,,United Kingdom,,2435,['United Kingdom'],"[{'label': 'display', 'lat': 51.42561080772597, 'lng': -0.16498140583182203}]",51.425610807725974,-0.16498140583182205,,,,52f7780011d27095f2affee0,7.0,,,8.2
558,558,Vijaya Krishna,Indian Restaurant,114 Mitcham Rd.,GB,London,United Kingdom,,2410,"['114 Mitcham Rd.', 'London', 'Greater London', 'SW17 9NG', 'United Kingdom']","[{'label': 'display', 'lat': 51.42542329086045, 'lng': -0.1645872346452105}]",51.42542329086045,-0.1645872346452105,,SW17 9NG,Greater London,4cacdb5c76d3a093b060356b,5.0,Moderate,2.0,8.0
561,561,Istanbul Meze Mangal,Turkish Restaurant,222 High Street,GB,Colliers Wood,United Kingdom,,2091,"['222 High Street', 'Colliers Wood', 'Greater London', 'SW19 2BH', 'United Kingdom']","[{'label': 'display', 'lat': 51.41679359474994, 'lng': -0.18042007880326782}]",51.41679359474994,-0.18042007880326785,,SW19 2BH,Greater London,51705731498e239ef0697725,12.0,Moderate,2.0,7.6
562,562,Apollo Banana Leaf,Sri Lankan Restaurant,188-190 Tooting High St,GB,Tooting,United Kingdom,at Trevelyan Rd,2413,"['188-190 Tooting High St (at Trevelyan Rd)', 'Tooting', 'Greater London', 'SW17 9RT', 'United Kingdom']","[{'label': 'display', 'lat': 51.42402829959263, 'lng': -0.17201092634091592}]",51.42402829959263,-0.17201092634091592,,SW17 9RT,Greater London,4c42f527ff711b8de43c1405,25.0,Cheap,1.0,7.8
567,567,Kaosarn,Thai Restaurant,181 Tooting High St,GB,London,United Kingdom,,2454,"['181 Tooting High St', 'London', 'Greater London', 'SW17 0SZ', 'United Kingdom']","[{'label': 'display', 'lat': 51.424663, 'lng': -0.171096}]",51.424663,-0.171096,,SW17 0SZ,Greater London,588114989e35d36f2e1c33fd,6.0,Moderate,2.0,7.5
569,569,Cedar Restaurant,Lebanese Restaurant,144 Merton High St,GB,London,United Kingdom,,2450,"['144 Merton High St', 'London', 'Greater London', 'SW19 1BA', 'United Kingdom']","[{'label': 'display', 'lat': 51.41584826, 'lng': -0.188032}]",51.41584826,-0.188032,,SW19 1BA,Greater London,4d0bcaed9a44370470f3bb67,4.0,Moderate,2.0,7.3
579,579,Toko,Japanese Restaurant,21 Abbotsbury Road,GB,London,United Kingdom,,2378,"['21 Abbotsbury Road', 'London', 'Greater London', 'SM4 5LJ', 'United Kingdom']","[{'label': 'display', 'lat': 51.4024382993283, 'lng': -0.1922729589749829}]",51.402438299328296,-0.1922729589749829,,SM4 5LJ,Greater London,4dc44590887717c880057273,2.0,Moderate,2.0,
580,580,Mr Cod,Fast Food Restaurant,56 central Road,GB,Morden,United Kingdom,,2404,"['56 central Road', 'Morden', 'Greater London', 'United Kingdom']","[{'label': 'display', 'lat': 51.39698005124354, 'lng': -0.19078599030285193}]",51.396980051243546,-0.19078599030285195,,,Greater London,4c54721dfd2ea593d7731d2a,4.0,Cheap,1.0,
590,590,The Tudor Rose,Restaurant,270 Coulsdon Rd,GB,Coulsdon,United Kingdom,,1244,"['270 Coulsdon Rd', 'Coulsdon', 'Greater London', 'CR5 1EB', 'United Kingdom']","[{'label': 'display', 'lat': 51.30623537069909, 'lng': -0.12364841563495123}]",51.30623537069909,-0.12364841563495126,,CR5 1EB,Greater London,4cd6bbf0aeb1224b5dde29ff,5.0,Moderate,2.0,5.9
595,595,Thai Venue,Thai Restaurant,200 Brighton Rd.,GB,Surrey,United Kingdom,,831,"['200 Brighton Rd.', 'Surrey', 'CR5 2NF', 'United Kingdom']","[{'label': 'display', 'lat': 51.319574573777096, 'lng': -0.1391597625702046}]",51.3195745737771,-0.1391597625702046,,CR5 2NF,Surrey,4ce685e1fe90a35d0193360e,3.0,Cheap,1.0,
605,605,Chipstead Tandoori,Indian Restaurant,32-34 Chipstead Station Parade,GB,Surrey,United Kingdom,,2215,"['32-34 Chipstead Station Parade', 'Surrey', 'CR5 3TF', 'United Kingdom']","[{'label': 'display', 'lat': 51.309317, 'lng': -0.170389}]",51.309317,-0.170389,,CR5 3TF,Surrey,538570b7498eb1110eed2800,0.0,Moderate,2.0,
607,607,Dosa n Chutny,Indian Restaurant,466 London Road,GB,Croydon,United Kingdom,,921,"['466 London Road', 'Croydon', 'Greater London', 'CR0 2SS', 'United Kingdom']","[{'label': 'display', 'lat': 51.38736124335527, 'lng': -0.10680598739327113}]",51.38736124335527,-0.10680598739327113,,CR0 2SS,Greater London,4c0bfddf4d49ef3b38025c6a,3.0,Moderate,2.0,7.7
613,613,Hot Grill,Middle Eastern Restaurant,27 Whitehorse Rd,GB,Croydon,United Kingdom,,1274,"['27 Whitehorse Rd', 'Croydon', 'Greater London', 'CR0 2JH', 'United Kingdom']","[{'label': 'display', 'lat': 51.384037, 'lng': -0.098108}]",51.384037,-0.098108,,CR0 2JH,Greater London,52fe95f1498eec3c1461684d,4.0,Moderate,2.0,7.5
617,617,Tasty Jerk Centre,Caribbean Restaurant,88 Whitehorse Ln,GB,London,United Kingdom,,1041,"['88 Whitehorse Ln', 'London', 'Greater London', 'SE25 6RQ', 'United Kingdom']","[{'label': 'display', 'lat': 51.3987409893903, 'lng': -0.08856126573726983}]",51.3987409893903,-0.08856126573726983,,SE25 6RQ,Greater London,4b1ef84ef964a5204f2224e3,4.0,Moderate,2.0,7.1
618,618,Blue & Orange,Mediterranean Restaurant,Thornton Heath High Street,GB,Croydon,United Kingdom,,558,"['Thornton Heath High Street', 'Croydon', 'Greater London', 'CR7 8RY', 'United Kingdom']","[{'label': 'display', 'lat': 51.39875164462007, 'lng': -0.09679666167518128}]",51.39875164462006,-0.09679666167518128,,CR7 8RY,Greater London,4bb9d23f98c7ef3b02563202,5.0,Moderate,2.0,6.9
622,622,Nando's,Portuguese Restaurant,26 High St,GB,Croydon,United Kingdom,Grants Entertainment Centre,2494,"['26 High St (Grants Entertainment Centre)', 'Croydon', 'Greater London', 'CR0 1GT', 'United Kingdom']","[{'label': 'display', 'lat': 51.37280263847501, 'lng': -0.10018278159571932}]",51.37280263847501,-0.10018278159571932,,CR0 1GT,Greater London,4b969831f964a5203ad734e3,16.0,Moderate,2.0,7.9
624,624,Bao Bao,Asian Restaurant,Unit 44-45 Boxpark,GB,Croydon,United Kingdom,99 George St,2329,"['Unit 44-45 Boxpark (99 George St)', 'Croydon', 'Greater London', 'CR0 1LD', 'United Kingdom']","[{'label': 'display', 'lat': 51.37498173152558, 'lng': -0.09357690811157227}]",51.37498173152557,-0.09357690811157228,,CR0 1LD,Greater London,5814d17d38fa18c20f2283d6,3.0,Moderate,2.0,7.7
625,625,Uncle Lim's Malaysian Kitchen,Malay Restaurant,Upper North Arcade,GB,Croydon,United Kingdom,Whitgift Centre,2225,"['Upper North Arcade (Whitgift Centre)', 'Croydon', 'Greater London', 'CR0 1LP', 'United Kingdom']","[{'label': 'display', 'lat': 51.37521540025681, 'lng': -0.10045385615353232}]",51.37521540025681,-0.10045385615353232,,CR0 1LP,Greater London,4afed94cf964a520de3022e3,11.0,Moderate,2.0,7.6
629,629,Coqfighter Chicken & Beer,Korean Restaurant,Unit 19 Boxpark,GB,Croydon,United Kingdom,99 George St,2322,"['Unit 19 Boxpark (99 George St)', 'Croydon', 'Greater London', 'CR0 1LD', 'United Kingdom']","[{'label': 'display', 'lat': 51.37504365206947, 'lng': -0.0935912005731379}]",51.37504365206947,-0.0935912005731379,,CR0 1LD,Greater London,5814d46638fa8201ad9efd44,3.0,Moderate,2.0,7.6
643,643,Kalpa Restaurant,Sri Lankan Restaurant,5-7 St James Rd,GB,Croydon,United Kingdom,,1355,"['5-7 St James Rd', 'Croydon', 'Greater London', 'CR0 2SB', 'United Kingdom']","[{'label': 'display', 'lat': 51.383376, 'lng': -0.107253}]",51.383376,-0.107253,,CR0 2SB,Greater London,573e2a6b498e25c549cbd970,3.0,,,6.8
644,644,Thai Express UK,Thai Restaurant,Unit 32-33 Boxpark,GB,Croydon,United Kingdom,99 George St,2323,"['Unit 32-33 Boxpark (99 George St)', 'Croydon', 'Greater London', 'CR0 1LD', 'United Kingdom']","[{'label': 'display', 'lat': 51.37502918435571, 'lng': -0.0936379465804956}]",51.375029184355704,-0.0936379465804956,,CR0 1LD,Greater London,5814da7138fa4159e5484315,1.0,Moderate,2.0,7.3
651,651,Ikea Restaurant,Scandinavian Restaurant,,GB,,United Kingdom,,2214,['United Kingdom'],"[{'label': 'display', 'lat': 51.38039171905984, 'lng': -0.1237631250460308}]",51.38039171905984,-0.1237631250460308,,,,54f1be95498e1e5f530c2abf,4.0,Moderate,2.0,7.0
656,656,YO! Sushi,Sushi Restaurant,21 North End Rd.,GB,Croydon,United Kingdom,,2152,"['21 North End Rd.', 'Croydon', 'Greater London', 'CR0 1TY', 'United Kingdom']","[{'label': 'display', 'lat': 51.37584622466272, 'lng': -0.10352164300350906}]",51.375846224662716,-0.10352164300350906,,CR0 1TY,Greater London,4e0600d57d8b2a0180514105,2.0,Moderate,2.0,6.9
660,660,Turtle Bay,Caribbean Restaurant,16 High St,GB,Croydon,United Kingdom,Unit 7 Grants Entertainment Centre,2460,"['16 High St (Unit 7 Grants Entertainment Centre)', 'Croydon', 'Greater London', 'CR0 1YA', 'United Kingdom']","[{'label': 'display', 'lat': 51.373101, 'lng': -0.100426}]",51.373101,-0.100426,,CR0 1YA,Greater London,5891da7cb3cdc86ccd51b8a8,2.0,Moderate,2.0,7.0
666,666,Mantanah,Thai Restaurant,"2 Orton Buildings, Porrland Rd",GB,South Norwood,United Kingdom,,2002,"['2 Orton Buildings, Porrland Rd', 'South Norwood', 'Greater London', 'SE25 4UD', 'United Kingdom']","[{'label': 'display', 'lat': 51.39940524514869, 'lng': -0.07439953744932119}]",51.399405245148685,-0.07439953744932119,,SE25 4UD,Greater London,4f7494e8e4b0c356d062f8ca,5.0,Moderate,2.0,6.6
668,668,Nando's,Portuguese Restaurant,Valley Park Leisure Centre,GB,Croydon,United Kingdom,,2483,"['Valley Park Leisure Centre', 'Croydon', 'Greater London', 'CR0 4YA', 'United Kingdom']","[{'label': 'display', 'lat': 51.37804355873892, 'lng': -0.12533797588176088}]",51.378043558738916,-0.12533797588176088,,CR0 4YA,Greater London,4bae3a39f964a52032953be3,9.0,Moderate,2.0,6.7
681,681,The Banana Leaf,Indian Restaurant,7 Lower Addiscombe Rd,GB,Croydon,United Kingdom,,1856,"['7 Lower Addiscombe Rd', 'Croydon', 'Greater London', 'CR0 6PQ', 'United Kingdom']","[{'label': 'display', 'lat': 51.380759, 'lng': -0.0889624}]",51.380759000000005,-0.0889624,,CR0 6PQ,Greater London,4bb508140ef1c9b601c8f412,7.0,Moderate,2.0,6.1
688,688,Ali Baba Kebab,Eastern European Restaurant,12 Trinity Rd,GB,London,United Kingdom,,1036,"['12 Trinity Rd', 'London', 'Greater London', 'SW17 7RE', 'United Kingdom']","[{'label': 'display', 'lat': 51.391806, 'lng': -0.088513}]",51.391806,-0.088513,Selhurst,SW17 7RE,Greater London,4c2e14fae307d13acbe00eda,0.0,Moderate,2.0,
694,694,The Beulah Spa (Harvester),English Restaurant,41 Beulah Hill,GB,Upper Norwood,United Kingdom,,2180,"['41 Beulah Hill', 'Upper Norwood', 'Greater London', 'SE19 3DS', 'United Kingdom']","[{'label': 'display', 'lat': 51.41372518399041, 'lng': -0.09237272380973045}]",51.4137251839904,-0.09237272380973044,,SE19 3DS,Greater London,4c7fd0e500c68cfac8f25536,10.0,,,5.8
697,697,Cafe Nomad,Mediterranean Restaurant,1389 london road,GB,Norbury,United Kingdom,,1674,"['1389 london road', 'Norbury', 'Greater London', 'Sw16 4an', 'United Kingdom']","[{'label': 'display', 'lat': 51.40819536793233, 'lng': -0.11447174200847852}]",51.40819536793233,-0.11447174200847852,,Sw16 4an,Greater London,4c48763296abd13a86677401,3.0,Moderate,2.0,
707,707,Las Fuentes,Tapas Restaurant,38-40 High St,GB,Purley,United Kingdom,,439,"['38-40 High St', 'Purley', 'Greater London', 'CR8 2AA', 'United Kingdom']","[{'label': 'display', 'lat': 51.33851417037038, 'lng': -0.11541090619681016}]",51.33851417037038,-0.11541090619681015,,CR8 2AA,Greater London,4b0d885af964a520614a23e3,8.0,Expensive,3.0,7.2
719,719,KFC,Fast Food Restaurant,11 High Street,GB,Surrey,United Kingdom,,514,"['11 High Street', 'Surrey', 'CR8 2AB', 'United Kingdom']","[{'label': 'display', 'lat': 51.3399159009142, 'lng': -0.11438399287241093}]",51.3399159009142,-0.11438399287241093,,CR8 2AB,Surrey,4c2604a3a852c928b2c9e56c,1.0,Cheap,1.0,6.1
720,720,Mingo Argentine Steakhouse Purley,Argentinian Restaurant,"4 Tudor Court, Russell Hill Road",GB,Purley,United Kingdom,,570,"['4 Tudor Court, Russell Hill Road', 'Purley', 'Greater London', 'CR8 2LA', 'United Kingdom']","[{'label': 'display', 'lat': 51.33906081178415, 'lng': -0.11711061000823975}]",51.33906081178415,-0.11711061000823975,,CR8 2LA,Greater London,4bac0280f964a520d5dd3ae3,4.0,Cheap,1.0,6.1
730,730,TGI Fridays,American Restaurant,702-704 Purley Way,GB,Croydon,United Kingdom,,2226,"['702-704 Purley Way', 'Croydon', 'Greater London', 'CR0 4RS', 'United Kingdom']","[{'label': 'display', 'lat': 51.355621669995585, 'lng': -0.11632439302999036}]",51.35562166999559,-0.11632439302999036,,CR0 4RS,Greater London,4bbe2149061fb713c9c6edce,16.0,Moderate,2.0,6.3
735,735,Toby Carvery,English Restaurant,415 Brighton Rd,GB,Croydon,United Kingdom,,1674,"['415 Brighton Rd', 'Croydon', 'Greater London', 'CR2 6EJ', 'United Kingdom']","[{'label': 'display', 'lat': 51.349538661486285, 'lng': -0.10031479154647162}]",51.34953866148629,-0.10031479154647162,,CR2 6EJ,Greater London,4ba1d37bf964a52006ce37e3,4.0,,,6.0
743,743,McDonald's,Fast Food Restaurant,"Colonnades Leisure Park, 619 Purley Way",GB,Croydon,United Kingdom,,2310,"['Colonnades Leisure Park, 619 Purley Way', 'Croydon', 'Greater London', 'CR0 4RJ', 'United Kingdom']","[{'label': 'display', 'lat': 51.35650003284875, 'lng': -0.11516723159661382}]",51.35650003284875,-0.11516723159661382,,CR0 4RJ,Greater London,4bd35c779854d13a1b9dfd4d,2.0,Cheap,1.0,5.6
753,753,Bao Bao,Asian Restaurant,Unit 44-45 Boxpark,GB,Croydon,United Kingdom,99 George St,1351,"['Unit 44-45 Boxpark (99 George St)', 'Croydon', 'Greater London', 'CR0 1LD', 'United Kingdom']","[{'label': 'display', 'lat': 51.37498173152558, 'lng': -0.09357690811157227}]",51.37498173152557,-0.09357690811157228,,CR0 1LD,Greater London,5814d17d38fa18c20f2283d6,3.0,Moderate,2.0,7.7
755,755,Coqfighter Chicken & Beer,Korean Restaurant,Unit 19 Boxpark,GB,Croydon,United Kingdom,99 George St,1354,"['Unit 19 Boxpark (99 George St)', 'Croydon', 'Greater London', 'CR0 1LD', 'United Kingdom']","[{'label': 'display', 'lat': 51.37504365206947, 'lng': -0.0935912005731379}]",51.37504365206947,-0.0935912005731379,,CR0 1LD,Greater London,5814d46638fa8201ad9efd44,3.0,Moderate,2.0,7.6
756,756,Nando's,Portuguese Restaurant,26 High St,GB,Croydon,United Kingdom,Grants Entertainment Centre,1776,"['26 High St (Grants Entertainment Centre)', 'Croydon', 'Greater London', 'CR0 1GT', 'United Kingdom']","[{'label': 'display', 'lat': 51.37280263847501, 'lng': -0.10018278159571932}]",51.37280263847501,-0.10018278159571932,,CR0 1GT,Greater London,4b969831f964a5203ad734e3,16.0,Moderate,2.0,7.9
762,762,Karnavar Restaurant,Indian Restaurant,62 South End,GB,Croydon,United Kingdom,,1850,"['62 South End', 'Croydon', 'Greater London', 'CR0 1DP', 'United Kingdom']","[{'label': 'display', 'lat': 51.365488699667566, 'lng': -0.09897044841981988}]",51.365488699667566,-0.09897044841981988,,CR0 1DP,Greater London,53559c06498ee46285abfa27,7.0,Moderate,2.0,7.8
765,765,Galicia,Spanish Restaurant,269-275 High St,GB,Croydon,United Kingdom,,1763,"['269-275 High St', 'Croydon', 'Greater London', 'CR0 1QH', 'United Kingdom']","[{'label': 'display', 'lat': 51.36845757906705, 'lng': -0.09927934900298166}]",51.36845757906705,-0.09927934900298166,,CR0 1QH,Greater London,4bac018df964a5207fdd3ae3,8.0,Moderate,2.0,7.6
767,767,The Gold Coast Bar & Restaurant,African Restaurant,224 Portland Rd,GB,South Norwood,United Kingdom,,2250,"['224 Portland Rd', 'South Norwood', 'Greater London', 'SE25 4QB', 'United Kingdom']","[{'label': 'display', 'lat': 51.39177138157308, 'lng': -0.06633652235879549}]",51.39177138157308,-0.06633652235879549,,SE25 4QB,Greater London,4b5a41def964a52002b828e3,5.0,Moderate,2.0,8.0
770,770,Uncle Lim's Malaysian Kitchen,Malay Restaurant,Upper North Arcade,GB,Croydon,United Kingdom,Whitgift Centre,1824,"['Upper North Arcade (Whitgift Centre)', 'Croydon', 'Greater London', 'CR0 1LP', 'United Kingdom']","[{'label': 'display', 'lat': 51.37521540025681, 'lng': -0.10045385615353232}]",51.37521540025681,-0.10045385615353232,,CR0 1LP,Greater London,4afed94cf964a520de3022e3,11.0,Moderate,2.0,7.6
771,771,Aqua Bar & Grill,Mediterranean Restaurant,33-35 South End,GB,Croydon,United Kingdom,,1797,"['33-35 South End', 'Croydon', 'Greater London', 'CR0 1BE', 'United Kingdom']","[{'label': 'display', 'lat': 51.36672805229652, 'lng': -0.09894737644928685}]",51.36672805229652,-0.09894737644928683,,CR0 1BE,Greater London,4c7af47aa86837040564154d,4.0,Expensive,3.0,7.5
772,772,Little Bay,Eastern European Restaurant,32 Selsdon Rd,GB,Croydon,United Kingdom,,1863,"['32 Selsdon Rd', 'Croydon', 'Greater London', 'CR2 6PB', 'United Kingdom']","[{'label': 'display', 'lat': 51.36221284124898, 'lng': -0.09611178562925375}]",51.36221284124898,-0.09611178562925377,"South Croydon, London, Greater London",CR2 6PB,Greater London,4bec480e75b2c9b6bc43438d,17.0,Moderate,2.0,7.5
775,775,Thai Express UK,Thai Restaurant,Unit 32-33 Boxpark,GB,Croydon,United Kingdom,99 George St,1357,"['Unit 32-33 Boxpark (99 George St)', 'Croydon', 'Greater London', 'CR0 1LD', 'United Kingdom']","[{'label': 'display', 'lat': 51.37502918435571, 'lng': -0.0936379465804956}]",51.375029184355704,-0.0936379465804956,,CR0 1LD,Greater London,5814da7138fa4159e5484315,1.0,Moderate,2.0,7.3
777,777,Preto,Brazilian Restaurant,,GB,,United Kingdom,,1774,['United Kingdom'],"[{'label': 'display', 'lat': 51.3724719646455, 'lng': -0.10015847665116956}]",51.3724719646455,-0.10015847665116956,,,,50f70539e4b0e09a2c5be456,5.0,Moderate,2.0,7.4
781,781,Anabella's Kitchen,Mediterranean Restaurant,299 High Street,GB,Croydon,United Kingdom,,1768,"['299 High Street', 'Croydon', 'Greater London', 'CR0 1QL', 'United Kingdom']","[{'label': 'display', 'lat': 51.3679313659668, 'lng': -0.09913444519042969}]",51.3679313659668,-0.09913444519042967,,CR0 1QL,Greater London,54f22fb7498ee77ce4396ab6,7.0,Moderate,2.0,7.3
783,783,Hot Grill,Middle Eastern Restaurant,27 Whitehorse Rd,GB,Croydon,United Kingdom,,2094,"['27 Whitehorse Rd', 'Croydon', 'Greater London', 'CR0 2JH', 'United Kingdom']","[{'label': 'display', 'lat': 51.384037, 'lng': -0.098108}]",51.384037,-0.098108,,CR0 2JH,Greater London,52fe95f1498eec3c1461684d,4.0,Moderate,2.0,7.5
785,785,Sangri,Indian Restaurant,265 High Street,GB,Croydon,United Kingdom,,1762,"['265 High Street', 'Croydon', 'Greater London', 'CR0 1QH', 'United Kingdom']","[{'label': 'display', 'lat': 51.36852191929014, 'lng': -0.0992887201008723}]",51.36852191929014,-0.0992887201008723,,CR0 1QH,Greater London,4bed96173372c9285add1114,6.0,Cheap,1.0,7.1
787,787,Apatura,Mediterranean Restaurant,14 South End Rd. Croydon,GB,Surrey,United Kingdom,,1799,"['14 South End Rd. Croydon', 'Surrey', 'CR0 1DL', 'United Kingdom']","[{'label': 'display', 'lat': 51.36675953865051, 'lng': -0.098993}]",51.366759538650506,-0.098993,,CR0 1DL,Surrey,4ce837ca678aa0933d46e7ea,8.0,Moderate,2.0,7.1
793,793,Turtle Bay,Caribbean Restaurant,16 High St,GB,Croydon,United Kingdom,Unit 7 Grants Entertainment Centre,1795,"['16 High St (Unit 7 Grants Entertainment Centre)', 'Croydon', 'Greater London', 'CR0 1YA', 'United Kingdom']","[{'label': 'display', 'lat': 51.373101, 'lng': -0.100426}]",51.373101,-0.100426,,CR0 1YA,Greater London,5891da7cb3cdc86ccd51b8a8,2.0,Moderate,2.0,7.0
803,803,YO! Sushi,Sushi Restaurant,21 North End Rd.,GB,Croydon,United Kingdom,,2047,"['21 North End Rd.', 'Croydon', 'Greater London', 'CR0 1TY', 'United Kingdom']","[{'label': 'display', 'lat': 51.37584622466272, 'lng': -0.10352164300350906}]",51.375846224662716,-0.10352164300350906,,CR0 1TY,Greater London,4e0600d57d8b2a0180514105,2.0,Moderate,2.0,6.9
806,806,Coombe Lodge (Beefeater),Restaurant,104 Coombe Rd,GB,Croydon,United Kingdom,,1098,"['104 Coombe Rd', 'Croydon', 'Greater London', 'CR0 5RB', 'United Kingdom']","[{'label': 'display', 'lat': 51.36254688260847, 'lng': -0.07160027655361718}]",51.36254688260847,-0.07160027655361717,,CR0 5RB,Greater London,4c4d6d6614b7b713c5cb5878,11.0,Moderate,2.0,6.5
807,807,Spice'n'ice,Indian Restaurant,3-5 South Park Hill Rd,GB,Croydon,United Kingdom,South Park Hotel,1331,"['3-5 South Park Hill Rd (South Park Hotel)', 'Croydon', 'Greater London', 'CR2 7DY', 'United Kingdom']","[{'label': 'display', 'lat': 51.36527923218268, 'lng': -0.09021771906998817}]",51.36527923218269,-0.09021771906998816,,CR2 7DY,Greater London,4d6038a629ef236a1ea3a259,7.0,Moderate,2.0,6.6
819,819,Cadillac Diner,American Restaurant,147 Wickham Rd,GB,Shirley,United Kingdom,,1744,"['147 Wickham Rd', 'Shirley', 'Greater London', 'CR0 8TE', 'United Kingdom']","[{'label': 'display', 'lat': 51.37462161560038, 'lng': -0.04981960911867283}]",51.37462161560038,-0.04981960911867283,,CR0 8TE,Greater London,4efb565f0039deea01b38eff,4.0,Moderate,2.0,6.3
821,821,The Banana Leaf,Indian Restaurant,7 Lower Addiscombe Rd,GB,Croydon,United Kingdom,,1375,"['7 Lower Addiscombe Rd', 'Croydon', 'Greater London', 'CR0 6PQ', 'United Kingdom']","[{'label': 'display', 'lat': 51.380759, 'lng': -0.0889624}]",51.380759000000005,-0.0889624,,CR0 6PQ,Greater London,4bb508140ef1c9b601c8f412,7.0,Moderate,2.0,6.1
823,823,KFC,Fast Food Restaurant,253 Lower Addiscombe Rd,GB,Croydon,United Kingdom,,788,"['253 Lower Addiscombe Rd', 'Croydon', 'Greater London', 'CR 0 7', 'United Kingdom']","[{'label': 'display', 'lat': 51.37930789407969, 'lng': -0.07486581802368164}]",51.37930789407969,-0.07486581802368164,,CR 0 7,Greater London,4e0a1a7b2271dfa46bc162c4,0.0,Cheap,1.0,5.8
825,825,Bagatti's,Italian Restaurant,South End,GB,Croydon,United Kingdom,Aberdeen road,1851,"['South End (Aberdeen road)', 'Croydon', 'Greater London', 'CR0 1DP', 'United Kingdom']","[{'label': 'display', 'lat': 51.365568599044444, 'lng': -0.09904001646915009}]",51.36556859904446,-0.09904001646915007,,CR0 1DP,Greater London,4bc9991768f976b0028b5d83,8.0,Moderate,2.0,6.2
835,835,KFC,Fast Food Restaurant,95a South End,GB,Croydon,United Kingdom,,1907,"['95a South End', 'Croydon', 'Greater London', 'CR0 1BG', 'United Kingdom']","[{'label': 'display', 'lat': 51.36424362659454, 'lng': -0.098906}]",51.36424362659454,-0.098906,,CR0 1BG,Greater London,4bc866250050b7130641ba3b,0.0,Cheap,1.0,5.8
840,840,Fish & Grill,Seafood Restaurant,48-50 South End,GB,Croydon,United Kingdom,,1847,"['48-50 South End', 'Croydon', 'Greater London', 'CR0 1DP', 'United Kingdom']","[{'label': 'display', 'lat': 51.36572927757591, 'lng': -0.09909442925433493}]",51.3657292775759,-0.09909442925433493,,CR0 1DP,Greater London,4bf437d5cad2c92831aa9b99,11.0,Cheap,1.0,5.6
842,842,Zizzi,Italian Restaurant,57-59 South End,GB,Croydon,United Kingdom,,1840,"['57-59 South End', 'Croydon', 'Greater London', 'CR0 1BF', 'United Kingdom']","[{'label': 'display', 'lat': 51.36570135242092, 'lng': -0.0989580104640575}]",51.36570135242092,-0.0989580104640575,,CR0 1BF,Greater London,4c30fe96452620a1a0f81f0f,7.0,Moderate,2.0,5.6
859,859,Prezzo,Italian Restaurant,87 Main Rd,GB,Sidcup,United Kingdom,,877,"['87 Main Rd', 'Sidcup', 'Greater London', 'DA14 6ND', 'United Kingdom']","[{'label': 'display', 'lat': 51.426565187911436, 'lng': 0.10086395306491319}]",51.426565187911436,0.1008639530649132,,DA14 6ND,Greater London,54b269c2498ea12fdf7c17ff,0.0,Moderate,2.0,6.3
861,861,McDonald's,Fast Food Restaurant,High St.,GB,Sidcup,United Kingdom,Station Rd.,760,"['High St. (Station Rd.)', 'Sidcup', 'Greater London', 'D A14', 'United Kingdom']","[{'label': 'display', 'lat': 51.425584534587344, 'lng': 0.1022854253232335}]",51.425584534587344,0.1022854253232335,,D A14,Greater London,4ad2039ef964a520dade20e3,0.0,Cheap,1.0,6.1
867,867,KFC,Fast Food Restaurant,3 Market Parade,GB,Sidcup,United Kingdom,,490,"['3 Market Parade', 'Sidcup', 'Greater London', 'DA14 6EP', 'United Kingdom']","[{'label': 'display', 'lat': 51.42489460133605, 'lng': 0.106098254008688}]",51.42489460133605,0.106098254008688,,DA14 6EP,Greater London,4ad4e9f3f964a520a6fc20e3,0.0,Cheap,1.0,5.8
877,877,Mario's Pizzeria,Italian Restaurant,Station Road,GB,Sidcup,United Kingdom,,1381,"['Station Road', 'Sidcup', 'Greater London', 'United Kingdom']","[{'label': 'display', 'lat': 51.435140805625764, 'lng': 0.102273744703267}]",51.43514080562576,0.102273744703267,,,Greater London,52d15e06498e2f0ec9f6795a,0.0,Moderate,2.0,
880,880,The Coach House,Italian Restaurant,Maidstone Rd,GB,London,United Kingdom,,2029,"['Maidstone Rd', 'London', 'Greater London', 'DA14 5BQ', 'United Kingdom']","[{'label': 'display', 'lat': 51.41159570015556, 'lng': 0.13339774900273155}]",51.411595700155566,0.13339774900273155,,DA14 5BQ,Greater London,4c600a5447429c7417831d7a,1.0,Moderate,2.0,
884,884,McDonald's,Fast Food Restaurant,Broomwood Rd,GB,Orpington,United Kingdom,,2498,"['Broomwood Rd', 'Orpington', 'Greater London', 'BR5 3AE', 'United Kingdom']","[{'label': 'display', 'lat': 51.40230773610354, 'lng': 0.1126638115299306}]",51.40230773610354,0.1126638115299306,,BR5 3AE,Greater London,4fcfa4f3e4b0aebeec6b1e22,1.0,Cheap,1.0,5.1
901,901,Prezzo,Italian Restaurant,87 Main Rd,GB,Sidcup,United Kingdom,,1530,"['87 Main Rd', 'Sidcup', 'Greater London', 'DA14 6ND', 'United Kingdom']","[{'label': 'display', 'lat': 51.426565187911436, 'lng': 0.10086395306491319}]",51.426565187911436,0.1008639530649132,,DA14 6ND,Greater London,54b269c2498ea12fdf7c17ff,0.0,Moderate,2.0,6.3
906,906,McDonald's,Fast Food Restaurant,High St.,GB,Sidcup,United Kingdom,Station Rd.,1648,"['High St. (Station Rd.)', 'Sidcup', 'Greater London', 'D A14', 'United Kingdom']","[{'label': 'display', 'lat': 51.425584534587344, 'lng': 0.1022854253232335}]",51.425584534587344,0.1022854253232335,,D A14,Greater London,4ad2039ef964a520dade20e3,0.0,Cheap,1.0,6.1
913,913,Mario's Pizzeria,Italian Restaurant,Station Road,GB,Sidcup,United Kingdom,,605,"['Station Road', 'Sidcup', 'Greater London', 'United Kingdom']","[{'label': 'display', 'lat': 51.435140805625764, 'lng': 0.102273744703267}]",51.43514080562576,0.102273744703267,,,Greater London,52d15e06498e2f0ec9f6795a,0.0,Moderate,2.0,
914,914,KFC,Fast Food Restaurant,3 Market Parade,GB,Sidcup,United Kingdom,,1774,"['3 Market Parade', 'Sidcup', 'Greater London', 'DA14 6EP', 'United Kingdom']","[{'label': 'display', 'lat': 51.42489460133605, 'lng': 0.106098254008688}]",51.42489460133605,0.106098254008688,,DA14 6EP,Greater London,4ad4e9f3f964a520a6fc20e3,0.0,Cheap,1.0,5.8
926,926,The Boathouse,Restaurant,Danson Park,GB,Bexleyheath,United Kingdom,,2268,"['Danson Park', 'Bexleyheath', 'Greater London', 'DA6 8HL', 'United Kingdom']","[{'label': 'display', 'lat': 51.45458633891904, 'lng': 0.12277969805097347}]",51.454586338919036,0.12277969805097347,,DA6 8HL,Greater London,4cb1bd1c1168a0933f6a3523,2.0,Moderate,2.0,
935,935,The Morgan Carvery,English Restaurant,,GB,,United Kingdom,,1241,['United Kingdom'],"[{'label': 'display', 'lat': 51.497747, 'lng': 0.154267}]",51.497747,0.15426700000000002,,,,55aa44f8498eb193c4f17a62,1.0,,,6.3
942,942,Tasty Chicken,Fast Food Restaurant,nuxley road,GB,Kent,United Kingdom,,570,"['nuxley road', 'Kent', 'United Kingdom']","[{'label': 'display', 'lat': 51.48233009, 'lng': 0.14599033}]",51.48233009,0.14599033,,,Kent,4c6d8bac10faa1430d33ee68,4.0,Cheap,1.0,
946,946,KFC,Fast Food Restaurant,1 Manor Rd,GB,Erith,United Kingdom,,2439,"['1 Manor Rd', 'Erith', 'Greater London', 'DA8 2AE', 'United Kingdom']","[{'label': 'display', 'lat': 51.47869686900509, 'lng': 0.18169829457146064}]",51.4786968690051,0.18169829457146064,,DA8 2AE,Greater London,4ced76b35de16ea8e747b696,1.0,Cheap,1.0,6.0
954,954,Bombay Balti House,Indian Restaurant,153 Long Ln.,GB,Kent,United Kingdom,at Heversham Rd.,2129,"['153 Long Ln. (at Heversham Rd.)', 'Kent', 'DA7 5AE', 'United Kingdom']","[{'label': 'display', 'lat': 51.467973145548655, 'lng': 0.15118782313661705}]",51.46797314554866,0.15118782313661705,,DA7 5AE,Kent,4e10be40b0fbfef99b8bde6a,0.0,Moderate,2.0,
964,964,The Morgan Carvery,English Restaurant,,GB,,United Kingdom,,1002,['United Kingdom'],"[{'label': 'display', 'lat': 51.497747, 'lng': 0.154267}]",51.497747,0.15426700000000002,,,,55aa44f8498eb193c4f17a62,1.0,,,6.3
972,972,Tasty Chicken,Fast Food Restaurant,nuxley road,GB,Kent,United Kingdom,,1050,"['nuxley road', 'Kent', 'United Kingdom']","[{'label': 'display', 'lat': 51.48233009, 'lng': 0.14599033}]",51.48233009,0.14599033,,,Kent,4c6d8bac10faa1430d33ee68,4.0,Cheap,1.0,
982,982,Ferraris,Italian Restaurant,2 Bexley High St,GB,Bexley,United Kingdom,,153,"['2 Bexley High St', 'Bexley', 'Greater London', 'DA5 1AD', 'United Kingdom']","[{'label': 'display', 'lat': 51.44169907474888, 'lng': 0.146754772294095}]",51.441699074748875,0.146754772294095,,DA5 1AD,Greater London,4b9aa675f964a520bdc935e3,5.0,Cheap,1.0,7.3
986,986,Old Bexley Greek Taverna,Greek Restaurant,82 Bexley High St.,GB,Bexley,United Kingdom,at Bourne Rd.,280,"['82 Bexley High St. (at Bourne Rd.)', 'Bexley', 'Greater London', 'DA5 1LB', 'United Kingdom']","[{'label': 'display', 'lat': 51.44140469763696, 'lng': 0.15064035496645917}]",51.441404697636955,0.15064035496645914,,DA5 1LB,Greater London,4c601b3f47429c746a051f7a,2.0,Moderate,2.0,6.6
988,988,Carved,American Restaurant,146 Broadway,GB,Bexleyheath,United Kingdom,,1869,"['146 Broadway', 'Bexleyheath', 'Greater London', 'DA6 7DW', 'United Kingdom']","[{'label': 'display', 'lat': 51.456952, 'lng': 0.143107}]",51.456952,0.14310699999999998,,DA6 7DW,Greater London,552bb0e9498ea8a3d78efc05,2.0,Moderate,2.0,7.2
994,994,Zizzi,Italian Restaurant,28-70 Broadway,GB,Bexleyheath,United Kingdom,-,1741,"['28-70 Broadway (-)', 'Bexleyheath', 'Greater London', 'DA6 7LL', 'United Kingdom']","[{'label': 'display', 'lat': 51.455833593920914, 'lng': 0.15034656224250617}]",51.45583359392091,0.15034656224250614,,DA6 7LL,Greater London,4e8367d5be7bdd8e4e80dcf7,2.0,Moderate,2.0,6.7
1000,1000,Bella Italia,Italian Restaurant,28/70 Broadway,GB,Bexleyheath,United Kingdom,,1789,"['28/70 Broadway', 'Bexleyheath', 'Greater London', 'DA6 7LL', 'United Kingdom']","[{'label': 'display', 'lat': 51.456329769226734, 'lng': 0.14953672442231938}]",51.45632976922674,0.14953672442231938,,DA6 7LL,Greater London,552287e1498e4993bd7841a4,1.0,Moderate,2.0,6.4
1013,1013,Happy China,Chinese Restaurant,2 Mill Row,GB,Kent,United Kingdom,at Bexley High St.,271,"['2 Mill Row (at Bexley High St.)', 'Kent', 'DA5 1LA', 'United Kingdom']","[{'label': 'display', 'lat': 51.44142288539946, 'lng': 0.1504826545715332}]",51.44142288539947,0.1504826545715332,,DA5 1LA,Kent,4e50107962e14b77e3a57f17,1.0,Cheap,1.0,
1014,1014,Bexley Charcoal Grill,Fast Food Restaurant,76-96 Bexley High St,GB,Bexley,United Kingdom,,294,"['76-96 Bexley High St', 'Bexley', 'Greater London', 'DA 5 1', 'United Kingdom']","[{'label': 'display', 'lat': 51.44168751030061, 'lng': 0.15062869738899076}]",51.44168751030061,0.15062869738899076,,DA 5 1,Greater London,4d6a998a6297721e5ffcd6b5,1.0,Cheap,1.0,
1017,1017,KFC,Fast Food Restaurant,184 Broadway,GB,Kent,United Kingdom,near Albion Rd.,1975,"['184 Broadway (near Albion Rd.)', 'Kent', 'DA6 7BT', 'United Kingdom']","[{'label': 'display', 'lat': 51.45746522733019, 'lng': 0.13956166524548927}]",51.45746522733019,0.13956166524548927,,DA6 7BT,Kent,4caf6287ef1b37041c103200,0.0,Cheap,1.0,6.0
1019,1019,Cafe Mojito,Mexican Restaurant,219 Broadway,GB,Kent,United Kingdom,near Albion Rd.,1946,"['219 Broadway (near Albion Rd.)', 'Kent', 'DA6 7EJ', 'United Kingdom']","[{'label': 'display', 'lat': 51.457206, 'lng': 0.139611}]",51.457206,0.13961099999999999,,DA6 7EJ,Kent,4c2ba839b34ad13a6922eace,2.0,Cheap,1.0,6.0
1022,1022,Nando's,Portuguese Restaurant,16-17 Market Place,GB,Bexleyheath,United Kingdom,near Arnsberg Way,1817,"['16-17 Market Place (near Arnsberg Way)', 'Bexleyheath', 'Greater London', 'DA6 7DZ', 'United Kingdom']","[{'label': 'display', 'lat': 51.456654236086614, 'lng': 0.1473923248068082}]",51.45665423608661,0.1473923248068082,,DA6 7DZ,Greater London,4de10ab452b1c1b3ce413733,9.0,Moderate,2.0,5.9
1025,1025,McDonald's,Fast Food Restaurant,65 Broadway,GB,Bexleyheath,United Kingdom,,1774,"['65 Broadway', 'Bexleyheath', 'Greater London', 'DA6 7JN', 'United Kingdom']","[{'label': 'display', 'lat': 51.45626858048189, 'lng': 0.14748552136791884}]",51.45626858048189,0.14748552136791884,Bexleyheath,DA6 7JN,Greater London,4b312e1df964a520f20125e3,2.0,Cheap,1.0,5.7
1029,1029,Burger King,Fast Food Restaurant,31-32 Broadway Shopping Centre,GB,Bexleyheath,United Kingdom,,1775,"['31-32 Broadway Shopping Centre', 'Bexleyheath', 'Greater London', 'United Kingdom']","[{'label': 'display', 'lat': 51.45619282765054, 'lng': 0.14435328968967512}]",51.45619282765054,0.14435328968967512,,,Greater London,4cdd683914119eb0bf22ed33,1.0,Cheap,1.0,5.7
1034,1034,The Meze,Turkish Restaurant,,GB,,United Kingdom,,2084,['United Kingdom'],"[{'label': 'display', 'lat': 51.457885, 'lng': 0.136519}]",51.457885,0.136519,,,,562938ce498edac0fe712f4c,0.0,Moderate,2.0,
1039,1039,Carved,American Restaurant,146 Broadway,GB,Bexleyheath,United Kingdom,,298,"['146 Broadway', 'Bexleyheath', 'Greater London', 'DA6 7DW', 'United Kingdom']","[{'label': 'display', 'lat': 51.456952, 'lng': 0.143107}]",51.456952,0.14310699999999998,,DA6 7DW,Greater London,552bb0e9498ea8a3d78efc05,2.0,Moderate,2.0,7.2
1043,1043,Ferraris,Italian Restaurant,2 Bexley High St,GB,Bexley,United Kingdom,,1526,"['2 Bexley High St', 'Bexley', 'Greater London', 'DA5 1AD', 'United Kingdom']","[{'label': 'display', 'lat': 51.44169907474888, 'lng': 0.146754772294095}]",51.441699074748875,0.146754772294095,,DA5 1AD,Greater London,4b9aa675f964a520bdc935e3,5.0,Cheap,1.0,7.3
1047,1047,Zizzi,Italian Restaurant,28-70 Broadway,GB,Bexleyheath,United Kingdom,-,694,"['28-70 Broadway (-)', 'Bexleyheath', 'Greater London', 'DA6 7LL', 'United Kingdom']","[{'label': 'display', 'lat': 51.455833593920914, 'lng': 0.15034656224250617}]",51.45583359392091,0.15034656224250614,,DA6 7LL,Greater London,4e8367d5be7bdd8e4e80dcf7,2.0,Moderate,2.0,6.7
1055,1055,Bella Italia,Italian Restaurant,28/70 Broadway,GB,Bexleyheath,United Kingdom,,651,"['28/70 Broadway', 'Bexleyheath', 'Greater London', 'DA6 7LL', 'United Kingdom']","[{'label': 'display', 'lat': 51.456329769226734, 'lng': 0.14953672442231938}]",51.45632976922674,0.14953672442231938,,DA6 7LL,Greater London,552287e1498e4993bd7841a4,1.0,Moderate,2.0,6.4
1064,1064,Old Bexley Greek Taverna,Greek Restaurant,82 Bexley High St.,GB,Bexley,United Kingdom,at Bourne Rd.,1653,"['82 Bexley High St. (at Bourne Rd.)', 'Bexley', 'Greater London', 'DA5 1LB', 'United Kingdom']","[{'label': 'display', 'lat': 51.44140469763696, 'lng': 0.15064035496645917}]",51.441404697636955,0.15064035496645914,,DA5 1LB,Greater London,4c601b3f47429c746a051f7a,2.0,Moderate,2.0,6.6
1065,1065,Toby Carvery,English Restaurant,Crook Log Rd,GB,Bexleyheath,United Kingdom,,1087,"['Crook Log Rd', 'Bexleyheath', 'Greater London', 'DA6 8EQ', 'United Kingdom']","[{'label': 'display', 'lat': 51.45922247139921, 'lng': 0.1264433180173515}]",51.459222471399215,0.1264433180173515,,DA6 8EQ,Greater London,4b2fe0c9f964a520cff124e3,11.0,,,6.4
1066,1066,KFC,Fast Food Restaurant,184 Broadway,GB,Kent,United Kingdom,near Albion Rd.,298,"['184 Broadway (near Albion Rd.)', 'Kent', 'DA6 7BT', 'United Kingdom']","[{'label': 'display', 'lat': 51.45746522733019, 'lng': 0.13956166524548927}]",51.45746522733019,0.13956166524548927,,DA6 7BT,Kent,4caf6287ef1b37041c103200,0.0,Cheap,1.0,6.0
1069,1069,Cafe Mojito,Mexican Restaurant,219 Broadway,GB,Kent,United Kingdom,near Albion Rd.,269,"['219 Broadway (near Albion Rd.)', 'Kent', 'DA6 7EJ', 'United Kingdom']","[{'label': 'display', 'lat': 51.457206, 'lng': 0.139611}]",51.457206,0.13961099999999999,,DA6 7EJ,Kent,4c2ba839b34ad13a6922eace,2.0,Cheap,1.0,6.0
1082,1082,The Meze,Turkish Restaurant,,GB,,United Kingdom,,435,['United Kingdom'],"[{'label': 'display', 'lat': 51.457885, 'lng': 0.136519}]",51.457885,0.136519,,,,562938ce498edac0fe712f4c,0.0,Moderate,2.0,
1097,1097,Carved,American Restaurant,146 Broadway,GB,Bexleyheath,United Kingdom,,986,"['146 Broadway', 'Bexleyheath', 'Greater London', 'DA6 7DW', 'United Kingdom']","[{'label': 'display', 'lat': 51.456952, 'lng': 0.143107}]",51.456952,0.14310699999999998,,DA6 7DW,Greater London,552bb0e9498ea8a3d78efc05,2.0,Moderate,2.0,7.2
1104,1104,Zizzi,Italian Restaurant,28-70 Broadway,GB,Bexleyheath,United Kingdom,-,1107,"['28-70 Broadway (-)', 'Bexleyheath', 'Greater London', 'DA6 7LL', 'United Kingdom']","[{'label': 'display', 'lat': 51.455833593920914, 'lng': 0.15034656224250617}]",51.45583359392091,0.15034656224250614,,DA6 7LL,Greater London,4e8367d5be7bdd8e4e80dcf7,2.0,Moderate,2.0,6.7
1111,1111,Bella Italia,Italian Restaurant,28/70 Broadway,GB,Bexleyheath,United Kingdom,,1041,"['28/70 Broadway', 'Bexleyheath', 'Greater London', 'DA6 7LL', 'United Kingdom']","[{'label': 'display', 'lat': 51.456329769226734, 'lng': 0.14953672442231938}]",51.45632976922674,0.14953672442231938,,DA6 7LL,Greater London,552287e1498e4993bd7841a4,1.0,Moderate,2.0,6.4
1120,1120,Toby Carvery,English Restaurant,Crook Log Rd,GB,Bexleyheath,United Kingdom,,1571,"['Crook Log Rd', 'Bexleyheath', 'Greater London', 'DA6 8EQ', 'United Kingdom']","[{'label': 'display', 'lat': 51.45922247139921, 'lng': 0.1264433180173515}]",51.459222471399215,0.1264433180173515,,DA6 8EQ,Greater London,4b2fe0c9f964a520cff124e3,11.0,,,6.4
1124,1124,KFC,Fast Food Restaurant,184 Broadway,GB,Kent,United Kingdom,near Albion Rd.,1024,"['184 Broadway (near Albion Rd.)', 'Kent', 'DA6 7BT', 'United Kingdom']","[{'label': 'display', 'lat': 51.45746522733019, 'lng': 0.13956166524548927}]",51.45746522733019,0.13956166524548927,,DA6 7BT,Kent,4caf6287ef1b37041c103200,0.0,Cheap,1.0,6.0
1125,1125,Cafe Mojito,Mexican Restaurant,219 Broadway,GB,Kent,United Kingdom,near Albion Rd.,1048,"['219 Broadway (near Albion Rd.)', 'Kent', 'DA6 7EJ', 'United Kingdom']","[{'label': 'display', 'lat': 51.457206, 'lng': 0.139611}]",51.457206,0.13961099999999999,,DA6 7EJ,Kent,4c2ba839b34ad13a6922eace,2.0,Cheap,1.0,6.0
1132,1132,Nando's,Portuguese Restaurant,16-17 Market Place,GB,Bexleyheath,United Kingdom,near Arnsberg Way,988,"['16-17 Market Place (near Arnsberg Way)', 'Bexleyheath', 'Greater London', 'DA6 7DZ', 'United Kingdom']","[{'label': 'display', 'lat': 51.456654236086614, 'lng': 0.1473923248068082}]",51.45665423608661,0.1473923248068082,,DA6 7DZ,Greater London,4de10ab452b1c1b3ce413733,9.0,Moderate,2.0,5.9
1136,1136,McDonald's,Fast Food Restaurant,65 Broadway,GB,Bexleyheath,United Kingdom,,1031,"['65 Broadway', 'Bexleyheath', 'Greater London', 'DA6 7JN', 'United Kingdom']","[{'label': 'display', 'lat': 51.45626858048189, 'lng': 0.14748552136791884}]",51.45626858048189,0.14748552136791884,Bexleyheath,DA6 7JN,Greater London,4b312e1df964a520f20125e3,2.0,Cheap,1.0,5.7
1139,1139,Burger King,Fast Food Restaurant,31-32 Broadway Shopping Centre,GB,Bexleyheath,United Kingdom,,1051,"['31-32 Broadway Shopping Centre', 'Bexleyheath', 'Greater London', 'United Kingdom']","[{'label': 'display', 'lat': 51.45619282765054, 'lng': 0.14435328968967512}]",51.45619282765054,0.14435328968967512,,,Greater London,4cdd683914119eb0bf22ed33,1.0,Cheap,1.0,5.7
1145,1145,The Meze,Turkish Restaurant,,GB,,United Kingdom,,1105,['United Kingdom'],"[{'label': 'display', 'lat': 51.457885, 'lng': 0.136519}]",51.457885,0.136519,,,,562938ce498edac0fe712f4c,0.0,Moderate,2.0,
1160,1160,KFC,Fast Food Restaurant,1 Manor Rd,GB,Erith,United Kingdom,,441,"['1 Manor Rd', 'Erith', 'Greater London', 'DA8 2AE', 'United Kingdom']","[{'label': 'display', 'lat': 51.47869686900509, 'lng': 0.18169829457146064}]",51.4786968690051,0.18169829457146064,,DA8 2AE,Greater London,4ced76b35de16ea8e747b696,1.0,Cheap,1.0,6.0
1189,1189,Treves & Hyde,Restaurant,15/17 Leman St,GB,London,United Kingdom,,932,"['15/17 Leman St', 'London', 'Greater London', 'E1 8EN', 'United Kingdom']","[{'label': 'display', 'lat': 51.51411421160949, 'lng': -0.07060639095470833}]",51.51411421160949,-0.07060639095470833,Whitechapel,E1 8EN,Greater London,5809932238fa64db0c1f9dee,29.0,Moderate,2.0,9.2
1190,1190,Chez Elles,French Restaurant,45 Brick Ln,GB,London,United Kingdom,,916,"['45 Brick Ln', 'London', 'Greater London', 'E1 6PU', 'United Kingdom']","[{'label': 'display', 'lat': 51.51870338331591, 'lng': -0.07153256271283441}]",51.51870338331591,-0.07153256271283441,,E1 6PU,Greater London,4fd4b30ae4b03f13ed0da048,36.0,Expensive,3.0,9.1
1203,1203,Gunpowder,Indian Restaurant,11 White's Row,GB,London,United Kingdom,,1133,"[""11 White's Row"", 'London', 'Greater London', 'E1 7NF', 'United Kingdom']","[{'label': 'display', 'lat': 51.518436325253475, 'lng': -0.0747323376373174}]",51.518436325253475,-0.0747323376373174,,E1 7NF,Greater London,56465da7498ec6f39fb6dee5,53.0,Moderate,2.0,9.2
1208,1208,St. John Bread and Wine,Restaurant,94-96 Commercial St,GB,Spitalfields,United Kingdom,,1140,"['94-96 Commercial St', 'Spitalfields', 'Greater London', 'E1 6LZ', 'United Kingdom']","[{'label': 'display', 'lat': 51.519767584836174, 'lng': -0.07452990292331736}]",51.51976758483618,-0.07452990292331736,Tower Hamlets,E1 6LZ,Greater London,4ac518c6f964a520f9a420e3,123.0,Moderate,2.0,9.1
1229,1229,Tas Firin,Turkish Restaurant,160 Bethnal Green Road,GB,London,United Kingdom,,1195,"['160 Bethnal Green Road', 'London', 'Greater London', 'E2 6DG', 'United Kingdom']","[{'label': 'display', 'lat': 51.52545849746562, 'lng': -0.0702727253628311}]",51.52545849746562,-0.0702727253628311,Tower Hamlets,E2 6DG,Greater London,4b151e15f964a52074a823e3,39.0,Moderate,2.0,8.8
1233,1233,Delamina EAST,Middle Eastern Restaurant,151-153 Commercial Street,GB,London,United Kingdom,,1250,"['151-153 Commercial Street', 'London', 'Greater London', 'E1 6BJ', 'United Kingdom']","[{'label': 'display', 'lat': 51.52131843153694, 'lng': -0.07548547776552969}]",51.52131843153694,-0.07548547776552969,"Spitalfields and Banglatown, London, Greater London",E1 6BJ,Greater London,56e94fda498ec86ebeb6fc90,33.0,Moderate,2.0,8.9
1235,1235,Burro e Salvia,Italian Restaurant,52 Redchurch St,GB,London,United Kingdom,,1350,"['52 Redchurch St', 'London', 'Greater London', 'E2 7DP', 'United Kingdom']","[{'label': 'display', 'lat': 51.52442972995472, 'lng': -0.0745981511372525}]",51.52442972995472,-0.0745981511372525,,E2 7DP,Greater London,51a62209454ae7b27328f944,50.0,Moderate,2.0,9.4
1236,1236,Ottolenghi,Mediterranean Restaurant,55 Artillery Ln,GB,Spitalfields,United Kingdom,,1301,"['55 Artillery Ln', 'Spitalfields', 'Greater London', 'E1 7LJ', 'United Kingdom']","[{'label': 'display', 'lat': 51.51827179652063, 'lng': -0.07717729864282495}]",51.51827179652064,-0.07717729864282495,,E1 7LJ,Greater London,552a4b25498e6e675f2ce59e,79.0,Moderate,2.0,9.1
1241,1241,Franze & Evans,Restaurant,101 Redchurch St.,GB,London,United Kingdom,,1257,"['101 Redchurch St.', 'London', 'Greater London', 'E2 7DL', 'United Kingdom']","[{'label': 'display', 'lat': 51.524713299659886, 'lng': -0.07259447408982599}]",51.52471329965989,-0.07259447408982599,"Shoreditch, London, Greater London",E2 7DL,Greater London,4ae46ab4f964a520779a21e3,101.0,Moderate,2.0,8.8
1245,1245,Genesis,Vegetarian / Vegan Restaurant,144 Commercial St,GB,,United Kingdom,,1277,"['144 Commercial St', 'E1 6NU', 'United Kingdom']","[{'label': 'display', 'lat': 51.52164037438032, 'lng': -0.07570266723632812}]",51.52164037438032,-0.07570266723632812,Spitalfields and Banglatown,E1 6NU,,5b87d6c167e5f2002c85840a,6.0,Moderate,2.0,8.8
1249,1249,Dishoom,Indian Restaurant,7 Boundary St,GB,London,United Kingdom,,1482,"['7 Boundary St', 'London', 'Greater London', 'E2 7JE', 'United Kingdom']","[{'label': 'display', 'lat': 51.52452361919365, 'lng': -0.07674786755631656}]",51.52452361919365,-0.07674786755631656,Shoreditch,E2 7JE,Greater London,5040721ae4b01446aa41d438,579.0,Moderate,2.0,9.6
1253,1253,Brawn,Restaurant,49 Columbia Rd,GB,Shoreditch,United Kingdom,,1499,"['49 Columbia Rd', 'Shoreditch', 'Greater London', 'E2 7RG', 'United Kingdom']","[{'label': 'display', 'lat': 51.528912924034444, 'lng': -0.0703129817333181}]",51.52891292403445,-0.0703129817333181,,E2 7RG,Greater London,4ceed4e213aea143e6e16f9f,70.0,Expensive,3.0,9.3
1254,1254,What The Pitta,Vegetarian / Vegan Restaurant,"Unit 52, Boxpark",GB,London,United Kingdom,,1388,"['Unit 52, Boxpark', 'London', 'Greater London', 'E1 6GY', 'United Kingdom']","[{'label': 'display', 'lat': 51.523515649465665, 'lng': -0.07610388018980559}]",51.52351564946567,-0.07610388018980559,,E1 6GY,Greater London,57d7eea3498ea60462c1fb36,19.0,Moderate,2.0,8.8
1264,1264,Brat,Spanish Restaurant,4 Redchurch St,GB,London,United Kingdom,,1483,"['4 Redchurch St', 'London', 'Greater London', 'E1 6JL', 'United Kingdom']","[{'label': 'display', 'lat': 51.5242190717852, 'lng': -0.07705675394560946}]",51.524219071785204,-0.07705675394560946,,E1 6JL,Greater London,5ab57aa175a6ea024c652ef6,13.0,Moderate,2.0,9.0
1265,1265,Andina,Peruvian Restaurant,1 Redchurch Street,GB,London,United Kingdom,Shoreditch High Street,1487,"['1 Redchurch Street (Shoreditch High Street)', 'London', 'Greater London', 'E2 7DJ', 'United Kingdom']","[{'label': 'display', 'lat': 51.52436530783196, 'lng': -0.07698208093643188}]",51.524365307831964,-0.07698208093643187,,E2 7DJ,Greater London,52988940498e725c6a9df38f,223.0,Cheap,1.0,8.9
1266,1266,Italina,Italian Restaurant,385 Cambridge Heath Rd,GB,Bethnal Green,United Kingdom,,1414,"['385 Cambridge Heath Rd', 'Bethnal Green', 'Greater London', 'E2 9RA', 'United Kingdom']","[{'label': 'display', 'lat': 51.53029848315733, 'lng': -0.056227878816925786}]",51.53029848315733,-0.05622787881692578,,E2 9RA,Greater London,4dc30ac2d4c0ad9c0f4c2578,22.0,Moderate,2.0,8.7
1270,1270,SUSHISAMBA Liverpool Street,Sushi Restaurant,110 Bishopsgate,GB,London,United Kingdom,at Camomile St,1583,"['110 Bishopsgate (at Camomile St)', 'London', 'Greater London', 'EC2N 4AY', 'United Kingdom']","[{'label': 'display', 'lat': 51.5161706567293, 'lng': -0.08114755153656006}]",51.5161706567293,-0.08114755153656006,Bishopsgate,EC2N 4AY,Greater London,4fa1bbbee4b058e27d7beab7,464.0,Very Expensive,4.0,9.3
1272,1272,Emilia's,Italian Restaurant,Unit C3 Ivory House St. Katharine Docks London,GB,,United Kingdom,,1481,"['Unit C3 Ivory House St. Katharine Docks London', 'United Kingdom']","[{'label': 'display', 'lat': 51.50716119495215, 'lng': -0.07154948957073691}]",51.50716119495215,-0.07154948957073691,,,,585d1bc19538393f8bfaa6e6,12.0,Moderate,2.0,8.8
1274,1274,Duck & Waffle,Restaurant,"110 Bishopsgate,40th Floor",GB,London,United Kingdom,at Camomile St,1569,"['110 Bishopsgate,40th Floor (at Camomile St)', 'London', 'Greater London', 'EC2N 4AY', 'United Kingdom']","[{'label': 'display', 'lat': 51.516108085718514, 'lng': -0.08092590729047038}]",51.51610808571851,-0.08092590729047038,,EC2N 4AY,Greater London,5012dbe9e4b07ac9f1400222,468.0,Expensive,3.0,9.0
1283,1283,Marmelo Kitchen,Restaurant,169 Francis Rd,GB,London,United Kingdom,,609,"['169 Francis Rd', 'London', 'Greater London', 'E10 6NT', 'United Kingdom']","[{'label': 'display', 'lat': 51.56391292222736, 'lng': -0.00592640197847489}]",51.56391292222737,-0.00592640197847489,,E10 6NT,Greater London,548c9961498ef3749f84f69b,7.0,Moderate,2.0,9.0
1288,1288,Oceano Restaurant,Mediterranean Restaurant,381 High Rd.,GB,Leyton,United Kingdom,,773,"['381 High Rd.', 'Leyton', 'Greater London', 'E10 5NA', 'United Kingdom']","[{'label': 'display', 'lat': 51.56125044027347, 'lng': -0.010059471663170049}]",51.56125044027347,-0.010059471663170049,,E10 5NA,Greater London,4b92d6cef964a520762034e3,6.0,Moderate,2.0,8.4
1293,1293,Singburi,Thai Restaurant,593 High Rd Leytonstone,GB,London,United Kingdom,,1577,"['593 High Rd Leytonstone', 'London', 'Greater London', 'E11 4PA', 'United Kingdom']","[{'label': 'display', 'lat': 51.56162934316492, 'lng': 0.008715998001688074}]",51.561629343164924,0.008715998001688074,,E11 4PA,Greater London,4b244bbbf964a520776524e3,18.0,Moderate,2.0,9.0
1299,1299,Hornbeam Cafe,Vegetarian / Vegan Restaurant,458 Hoe St.,GB,Walthamstow,United Kingdom,,924,"['458 Hoe St.', 'Walthamstow', 'Greater London', 'E17 9AH', 'United Kingdom']","[{'label': 'display', 'lat': 51.576182716936174, 'lng': -0.014859331631129584}]",51.57618271693618,-0.014859331631129584,,E17 9AH,Greater London,4c78f5163badb1f7895c4d54,10.0,Moderate,2.0,7.8
1300,1300,Panda,Dim Sum Restaurant,767 High Rd,GB,Leytonstone,United Kingdom,,1519,"['767 High Rd', 'Leytonstone', 'Greater London', 'E11 4QS', 'United Kingdom']","[{'label': 'display', 'lat': 51.56667027492539, 'lng': 0.010297031120745568}]",51.56667027492539,0.010297031120745568,,E11 4QS,Greater London,52b70ac7498e82da96866f2f,16.0,Moderate,2.0,8.7
1310,1310,The Olive,Mediterranean Restaurant,Kirkdale Road,GB,Leytonstone,United Kingdom,,1426,"['Kirkdale Road', 'Leytonstone', 'Greater London', ' E11', 'United Kingdom']","[{'label': 'display', 'lat': 51.568656220251455, 'lng': 0.009071193392890097}]",51.56865622025146,0.009071193392890095,,E11,Greater London,4b9e9372f964a5209df036e3,9.0,Moderate,2.0,8.0
1311,1311,Eat 17,Restaurant,28-30 Orford Rd,GB,Walthamstow,United Kingdom,,1603,"['28-30 Orford Rd', 'Walthamstow', 'Greater London', 'E17 9NJ', 'United Kingdom']","[{'label': 'display', 'lat': 51.582511163200465, 'lng': -0.01303445646217313}]",51.582511163200465,-0.01303445646217313,,E17 9NJ,Greater London,4ae9e5b6f964a5206bb721e3,45.0,Moderate,2.0,8.3
1321,1321,Orford Saloon,Tapas Restaurant,32 Orford Rd,GB,Walthamstow,United Kingdom,,1598,"['32 Orford Rd', 'Walthamstow', 'Greater London', 'E17 9NJ', 'United Kingdom']","[{'label': 'display', 'lat': 51.58246457993882, 'lng': -0.013099563354307921}]",51.58246457993882,-0.01309956335430792,,E17 9NJ,Greater London,4ad06fdcf964a5200fd820e3,20.0,Expensive,3.0,8.0
1324,1324,Etles Uyghur Restaurant,Halal Restaurant,Hoe Street,GB,London,United Kingdom,,1587,"['Hoe Street', 'London', 'Greater London', 'United Kingdom']","[{'label': 'display', 'lat': 51.581768, 'lng': -0.018297}]",51.581768,-0.018297,,,Greater London,58c84b46102f477e0152a10c,4.0,,,8.0
1332,1332,The Village Kitchen,Restaurant,41 Orford Rd,GB,Waltham Forest,United Kingdom,,1616,"['41 Orford Rd', 'Waltham Forest', 'Greater London', 'E17 9NJ', 'United Kingdom']","[{'label': 'display', 'lat': 51.58265494629882, 'lng': -0.012305130198996293}]",51.58265494629882,-0.012305130198996293,,E17 9NJ,Greater London,4bb0f78af964a520956e3ce3,13.0,Moderate,2.0,7.9
1349,1349,Darkhorse Restaurant,Modern European Restaurant,"16, 19 Victory Parade",GB,London,United Kingdom,,2303,"['16, 19 Victory Parade', 'London', 'Greater London', 'E20 1FS', 'United Kingdom']","[{'label': 'display', 'lat': 51.54745988707272, 'lng': -0.010549343381465327}]",51.54745988707272,-0.010549343381465327,,E20 1FS,Greater London,5658afcd498e29e83ff6ba8d,3.0,,,8.1
1356,1356,Mora,Italian Restaurant,"487 High Rd Leytonstone, London",GB,,United Kingdom,,1629,"['487 High Rd Leytonstone, London', 'E11 4PG', 'United Kingdom']","[{'label': 'display', 'lat': 51.559207, 'lng': 0.007122}]",51.559207,0.007122,,E11 4PG,,5708f8a5498e04ec2b813879,3.0,Moderate,2.0,7.3
1360,1360,Nando's,Portuguese Restaurant,"Unit 1, The Scene",GB,Walthamstow,United Kingdom,261 High Street,1958,"['Unit 1, The Scene (261 High Street)', 'Walthamstow', 'Greater London', 'E17 7FD', 'United Kingdom']","[{'label': 'display', 'lat': 51.58483842450507, 'lng': -0.02045578598012545}]",51.58483842450507,-0.02045578598012545,,E17 7FD,Greater London,54760c38498e2e7d1243e965,1.0,Moderate,2.0,7.5
1363,1363,Santi,Italian Restaurant,42-43 Victory Parade,GB,London,United Kingdom,East Village,2188,"['42-43 Victory Parade (East Village)', 'London', 'Greater London', 'E20 1FS', 'United Kingdom']","[{'label': 'display', 'lat': 51.548542, 'lng': -0.008998}]",51.548542,-0.008998,,E20 1FS,Greater London,579a5c53498ecfc17cb9b4be,4.0,Moderate,2.0,7.5
1368,1368,Star of India,Indian Restaurant,875 High Road,GB,Leytonstone,United Kingdom,,1782,"['875 High Road', 'Leytonstone', 'Greater London', 'E11 1HR', 'United Kingdom']","[{'label': 'display', 'lat': 51.57035498236057, 'lng': 0.013978183791959963}]",51.57035498236057,0.013978183791959965,,E11 1HR,Greater London,4b8179b3f964a520a7a830e3,4.0,Moderate,2.0,6.8
1369,1369,Berneliu Uzeiga,Restaurant,,GB,,United Kingdom,,1646,['United Kingdom'],"[{'label': 'display', 'lat': 51.55891618889419, 'lng': 0.007069069442288223}]",51.55891618889419,0.007069069442288223,,,,4f75b2cde4b0149b3ddc61b0,2.0,Moderate,2.0,6.7
1372,1372,Kasturi,Indian Restaurant,146 Leytonstone High Rd,GB,Stratford,United Kingdom,,2154,"['146 Leytonstone High Rd', 'Stratford', 'Greater London', 'E15 1UA', 'United Kingdom']","[{'label': 'display', 'lat': 51.552011, 'lng': 0.0056760000000000005}]",51.552011,0.0056760000000000005,,E15 1UA,Greater London,4dec88ec1520ed580a583679,8.0,Cheap,1.0,6.6
1378,1378,KFC,Fast Food Restaurant,High Road Leytonstone,GB,Leytonstone,United Kingdom,,1550,"['High Road Leytonstone', 'Leytonstone', 'Greater London', 'E11', 'United Kingdom']","[{'label': 'display', 'lat': 51.567718, 'lng': 0.010868}]",51.567718,0.010868000000000001,,E11,Greater London,579a6cfe498ed2eeb9f75351,0.0,Cheap,1.0,6.0
1383,1383,Panda,Dim Sum Restaurant,767 High Rd,GB,Leytonstone,United Kingdom,,307,"['767 High Rd', 'Leytonstone', 'Greater London', 'E11 4QS', 'United Kingdom']","[{'label': 'display', 'lat': 51.56667027492539, 'lng': 0.010297031120745568}]",51.56667027492539,0.010297031120745568,,E11 4QS,Greater London,52b70ac7498e82da96866f2f,16.0,Moderate,2.0,8.7
1386,1386,Singburi,Thai Restaurant,593 High Rd Leytonstone,GB,London,United Kingdom,,781,"['593 High Rd Leytonstone', 'London', 'Greater London', 'E11 4PA', 'United Kingdom']","[{'label': 'display', 'lat': 51.56162934316492, 'lng': 0.008715998001688074}]",51.561629343164924,0.008715998001688074,,E11 4PA,Greater London,4b244bbbf964a520776524e3,18.0,Moderate,2.0,9.0
1388,1388,The Olive,Mediterranean Restaurant,Kirkdale Road,GB,Leytonstone,United Kingdom,,386,"['Kirkdale Road', 'Leytonstone', 'Greater London', ' E11', 'United Kingdom']","[{'label': 'display', 'lat': 51.568656220251455, 'lng': 0.009071193392890097}]",51.56865622025146,0.009071193392890095,,E11,Greater London,4b9e9372f964a5209df036e3,9.0,Moderate,2.0,8.0
1396,1396,Marmelo Kitchen,Restaurant,169 Francis Rd,GB,London,United Kingdom,,1470,"['169 Francis Rd', 'London', 'Greater London', 'E10 6NT', 'United Kingdom']","[{'label': 'display', 'lat': 51.56391292222736, 'lng': -0.00592640197847489}]",51.56391292222737,-0.00592640197847489,,E10 6NT,Greater London,548c9961498ef3749f84f69b,7.0,Moderate,2.0,9.0
1407,1407,Arch Rivals,Restaurant,361 Winchelsea Road,GB,London,United Kingdom,,1480,"['361 Winchelsea Road', 'London', 'Greater London', 'E7 0AQ', 'United Kingdom']","[{'label': 'display', 'lat': 51.55479, 'lng': 0.019658245}]",51.554790000000004,0.019658245,Cann Hall,E7 0AQ,Greater London,5a2b0b7225fb7b771f9f6b57,2.0,Moderate,2.0,8.1
1411,1411,Oceano Restaurant,Mediterranean Restaurant,381 High Rd.,GB,Leyton,United Kingdom,,1840,"['381 High Rd.', 'Leyton', 'Greater London', 'E10 5NA', 'United Kingdom']","[{'label': 'display', 'lat': 51.56125044027347, 'lng': -0.010059471663170049}]",51.56125044027347,-0.010059471663170049,,E10 5NA,Greater London,4b92d6cef964a520762034e3,6.0,Moderate,2.0,8.4
1420,1420,Corner Kitchen,Italian Restaurant,,GB,,United Kingdom,,2194,['United Kingdom'],"[{'label': 'display', 'lat': 51.54909812797763, 'lng': 0.024972616163025967}]",51.54909812797763,0.024972616163025967,,,,56b8d285498e16a732b3225f,8.0,Moderate,2.0,8.8
